$GPRMC,173036.000,A,3942.3309,N,10515.1570,W,0.00,21.96,201217,,,A*41
$GYRO,171220,173036.000,-7.500,-5.125,0.375
$ACCEL,171220,173036.000,3.620,0.730,10.360
$LINEAR,171220,173036.000,2.860,0.600,-0.640
$EULER,171220,173036.000,283.125,3.750,-1.812
$GPRMC,173036.100,A,3942.3309,N,10515.1570,W,0.00,21.96,201217,,,A*40
$GYRO,171220,173036.100,-8.188,1.312,-0.625
$ACCEL,171220,173036.100,2.560,-1.570,12.900
$LINEAR,171220,173036.100,1.950,-1.870,3.120
$EULER,171220,173036.100,283.125,3.562,-1.688
$GPRMC,173036.200,A,3942.3309,N,10515.1570,W,0.00,21.96,201217,,,A*43
$GYRO,171220,173036.200,12.875,4.250,-2.062
$ACCEL,171220,173036.200,1.750,2.110,5.810
$LINEAR,171220,173036.200,1.260,1.610,-3.490
$EULER,171220,173036.200,283.188,3.438,-1.688
$GPRMC,173036.300,A,3942.3309,N,10515.1570,W,0.00,21.96,201217,,,A*42
$GYRO,171220,173036.300,5.062,9.062,-0.625
$ACCEL,171220,173036.300,1.110,-0.070,13.200
$LINEAR,171220,173036.300,0.560,-0.400,3.410
$EULER,171220,173036.300,283.188,3.250,-1.875
$GPRMC,173036.400,A,3942.3309,N,10515.1570,W,0.00,21.96,201217,,,A*45
$GYRO,171220,173036.400,-6.188,6.000,-1.125
$ACCEL,171220,173036.400,2.260,-0.250,13.150
$LINEAR,171220,173036.400,1.960,-1.120,2.770
$EULER,171220,173036.400,283.250,3.188,-1.688
$GPRMC,173036.500,A,3942.3326,N,10515.1582,W,2.54,318.16,201217,,,A*76
$GYRO,171220,173036.500,1.500,-7.625,1.562
$ACCEL,171220,173036.500,2.500,0.460,7.040
$LINEAR,171220,173036.500,1.860,0.160,-2.320
$EULER,171220,173036.500,283.312,3.812,-1.688
$GPRMC,173036.600,A,3942.3328,N,10515.1583,W,2.84,316.48,201217,,,A*72
$GYRO,171220,173036.600,6.062,12.938,0.625
$ACCEL,171220,173036.600,1.050,-2.440,15.000
$LINEAR,171220,173036.600,0.460,-2.780,5.220
$EULER,171220,173036.600,283.250,3.312,-2.000
$GPRMC,173036.700,A,3942.3329,N,10515.1585,W,3.12,315.43,201217,,,A*72
$GYRO,171220,173036.700,0.062,-2.812,0.625
$ACCEL,171220,173036.700,2.080,1.650,7.610
$LINEAR,171220,173036.700,1.490,1.340,-2.160
$EULER,171220,173036.700,283.312,3.438,-1.875
$GPRMC,173036.800,A,3942.3330,N,10515.1587,W,3.58,315.22,201217,,,A*7E
$GYRO,171220,173036.800,-3.062,1.062,0.500
$ACCEL,171220,173036.800,2.880,-0.790,11.260
$LINEAR,171220,173036.800,1.450,0.910,2.770
$EULER,171220,173036.800,283.312,3.438,-1.750
$GPRMC,173036.900,A,3942.3331,N,10515.1588,W,3.97,315.12,201217,,,A*71
$GYRO,171220,173036.900,3.688,-0.438,-0.750
$ACCEL,171220,173036.900,1.670,0.550,6.100
$LINEAR,171220,173036.900,1.080,0.240,-3.670
$EULER,171220,173036.900,283.375,3.438,-1.812
$GPRMC,173037.000,A,3942.3333,N,10515.1590,W,4.36,316.00,201217,,,A*7E
$GYRO,171220,173037.000,0.375,-0.938,0.125
$ACCEL,171220,173037.000,2.630,-1.410,12.550
$LINEAR,171220,173037.000,1.320,-0.120,0.890
$EULER,171220,173037.000,283.375,3.625,-1.688
$GPRMC,173037.100,A,3942.3334,N,10515.1590,W,4.55,316.84,201217,,,A*71
$GYRO,171220,173037.100,-0.562,-3.438,1.312
$ACCEL,171220,173037.100,3.780,-0.140,14.110
$LINEAR,171220,173037.100,3.320,-0.710,1.200
$EULER,171220,173037.100,283.250,3.688,-1.562
$GPRMC,173037.200,A,3942.3335,N,10515.1592,W,4.90,317.81,201217,,,A*7C
$GYRO,171220,173037.200,-6.500,-7.500,2.875
$ACCEL,171220,173037.200,3.330,2.050,11.790
$LINEAR,171220,173037.200,1.320,-0.140,0.660
$EULER,171220,173037.200,283.188,3.375,-1.438
$GPRMC,173037.300,A,3942.3336,N,10515.1592,W,5.02,318.27,201217,,,A*77
$GYRO,171220,173037.300,0.688,10.500,-2.750
$ACCEL,171220,173037.300,1.230,-1.600,17.080
$LINEAR,171220,173037.300,0.640,-1.890,7.300
$EULER,171220,173037.300,283.000,3.438,-1.688
$GPRMC,173037.400,A,3942.3337,N,10515.1593,W,5.15,318.96,201217,,,A*7C
$GYRO,171220,173037.400,-21.250,14.812,1.000
$ACCEL,171220,173037.400,4.290,1.500,16.010
$LINEAR,171220,173037.400,3.670,1.260,6.220
$EULER,171220,173037.400,283.062,3.500,-1.125
$GPRMC,173037.500,A,3942.3338,N,10515.1594,W,5.27,319.17,201217,,,A*7C
$GYRO,171220,173037.500,3.375,1.875,-2.688
$ACCEL,171220,173037.500,2.330,2.500,7.950
$LINEAR,171220,173037.500,1.630,2.350,-1.820
$EULER,171220,173037.500,283.250,4.062,-0.875
$GPRMC,173037.600,A,3942.3339,N,10515.1595,W,5.43,319.75,201217,,,A*79
$GYRO,171220,173037.600,-9.875,7.688,-0.062
$ACCEL,171220,173037.600,4.490,0.720,14.470
$LINEAR,171220,173037.600,3.830,0.600,4.680
$EULER,171220,173037.600,283.312,3.812,-0.688
$GPRMC,173037.700,A,3942.3341,N,10515.1596,W,5.65,320.68,201217,,,A*76
$GYRO,171220,173037.700,8.438,-16.062,-4.188
$ACCEL,171220,173037.700,1.740,-0.810,3.930
$LINEAR,171220,173037.700,2.210,-2.040,-1.990
$EULER,171220,173037.700,283.500,4.000,-0.812
$GPRMC,173037.800,A,3942.3342,N,10515.1598,W,5.90,321.89,201217,,,A*70
$GYRO,171220,173037.800,-28.125,-3.250,1.500
$ACCEL,171220,173037.800,4.770,-2.670,19.210
$LINEAR,171220,173037.800,4.240,-2.820,9.420
$EULER,171220,173037.800,283.500,3.125,-0.875
$GPRMC,173037.900,A,3942.3344,N,10515.1599,W,6.10,321.71,201217,,,A*7A
$GYRO,171220,173037.900,23.625,7.812,-4.188
$ACCEL,171220,173037.900,3.420,3.010,9.510
$LINEAR,171220,173037.900,2.890,2.880,-0.280
$EULER,171220,173037.900,283.812,3.062,-0.750
$GPRMC,173038.000,A,3942.3346,N,10515.1600,W,6.29,321.42,201217,,,A*77
$GYRO,171220,173038.000,6.562,12.250,-4.500
$ACCEL,171220,173038.000,3.820,-1.930,18.110
$LINEAR,171220,173038.000,3.230,-1.930,8.320
$EULER,171220,173038.000,284.000,3.438,0.000
$GPRMC,173038.100,A,3942.3348,N,10515.1602,W,6.40,321.29,201217,,,A*78
$GYRO,171220,173038.100,21.312,-15.188,-3.125
$ACCEL,171220,173038.100,2.920,1.040,4.600
$LINEAR,171220,173038.100,2.240,0.960,-5.170
$EULER,171220,173038.100,284.188,3.938,-0.438
$GPRMC,173038.200,A,3942.3350,N,10515.1603,W,6.55,321.30,201217,,,A*7F
$GYRO,171220,173038.200,-5.312,2.812,-3.875
$ACCEL,171220,173038.200,1.340,0.540,4.980
$LINEAR,171220,173038.200,0.610,0.520,-4.790
$EULER,171220,173038.200,284.375,4.250,-0.062
$GPRMC,173038.300,A,3942.3352,N,10515.1605,W,6.72,321.16,201217,,,A*7B
$GYRO,171220,173038.300,9.062,-4.625,-9.062
$ACCEL,171220,173038.300,3.410,-0.510,11.880
$LINEAR,171220,173038.300,2.720,-0.500,2.100
$EULER,171220,173038.300,284.938,4.000,0.000
$GPRMC,173038.400,A,3942.3354,N,10515.1606,W,6.88,321.15,201217,,,A*7F
$GYRO,171220,173038.400,-28.562,5.875,-6.500
$ACCEL,171220,173038.400,4.720,-3.110,22.060
$LINEAR,171220,173038.400,4.040,-3.000,12.270
$EULER,171220,173038.400,285.562,3.938,0.625
$GPRMC,173038.500,A,3942.3356,N,10515.1608,W,7.08,320.92,201217,,,A*75
$GYRO,171220,173038.500,43.125,-5.250,-10.750
$ACCEL,171220,173038.500,0.410,0.420,1.090
$LINEAR,171220,173038.500,0.500,0.760,-9.950
$EULER,171220,173038.500,286.500,3.625,-0.438
$GPRMC,173038.600,A,3942.3358,N,10515.1610,W,7.26,320.82,201217,,,A*7C
$GYRO,171220,173038.600,4.188,-9.500,-10.062
$ACCEL,171220,173038.600,2.820,0.760,7.850
$LINEAR,171220,173038.600,1.030,1.710,-3.210
$EULER,171220,173038.600,287.625,3.375,-0.250
$GPRMC,173038.700,A,3942.3360,N,10515.1612,W,7.47,320.74,201217,,,A*7A
$GYRO,171220,173038.700,1.562,-0.875,-5.750
$ACCEL,171220,173038.700,4.300,1.520,8.960
$LINEAR,171220,173038.700,6.720,-4.480,22.700
$EULER,171220,173038.700,288.312,3.562,-0.375
$GPRMC,173038.800,A,3942.3362,N,10515.1614,W,7.68,320.39,201217,,,A*75
$GYRO,171220,173038.800,-12.000,39.625,-11.250
$ACCEL,171220,173038.800,4.710,-2.970,23.600
$LINEAR,171220,173038.800,4.080,-2.990,13.820
$EULER,171220,173038.800,290.312,3.625,-0.062
$GPRMC,173038.900,A,3942.3365,N,10515.1616,W,7.90,320.23,201217,,,A*7D
$GYRO,171220,173038.900,7.000,-9.375,-17.500
$ACCEL,171220,173038.900,0.770,0.560,5.080
$LINEAR,171220,173038.900,0.140,0.430,-4.690
$EULER,171220,173038.900,291.188,3.625,-0.750
$GPRMC,173039.000,A,3942.3367,N,10515.1618,W,8.10,319.87,201217,,,A*7A
$GYRO,171220,173039.000,22.938,-1.688,-6.062
$ACCEL,171220,173039.000,0.990,0.820,1.310
$LINEAR,171220,173039.000,0.400,0.700,-8.470
$EULER,171220,173039.000,292.188,3.438,-1.000
$GPRMC,173039.100,A,3942.3370,N,10515.1620,W,8.29,319.79,201217,,,A*7D
$GYRO,171220,173039.100,23.562,-4.750,-3.500
$ACCEL,171220,173039.100,3.200,2.050,4.840
$LINEAR,171220,173039.100,2.570,1.820,-4.940
$EULER,171220,173039.100,292.750,3.625,-1.312
$GPRMC,173039.200,A,3942.3372,N,10515.1623,W,8.46,319.78,201217,,,A*77
$GYRO,171220,173039.200,-29.688,9.812,-11.625
$ACCEL,171220,173039.200,2.980,-1.990,12.040
$LINEAR,171220,173039.200,2.320,-2.170,2.260
$EULER,171220,173039.200,293.688,3.812,-1.000
$GPRMC,173039.300,A,3942.3375,N,10515.1625,W,8.64,319.68,201217,,,A*76
$GYRO,171220,173039.300,18.375,-1.688,-8.750
$ACCEL,171220,173039.300,2.290,1.200,4.450
$LINEAR,171220,173039.300,1.610,0.930,-5.320
$EULER,171220,173039.300,294.500,3.938,-1.562
$GPRMC,173039.400,A,3942.3377,N,10515.1628,W,8.83,319.32,201217,,,A*78
$GYRO,171220,173039.400,-7.250,32.438,-9.375
$ACCEL,171220,173039.400,7.900,0.150,25.290
$LINEAR,171220,173039.400,7.290,-0.120,15.510
$EULER,171220,173039.400,295.438,3.562,-1.625
$GPRMC,173039.500,A,3942.3380,N,10515.1631,W,9.05,318.48,201217,,,A*7A
$GYRO,171220,173039.500,17.188,-7.562,-2.375
$ACCEL,171220,173039.500,1.570,1.250,0.180
$LINEAR,171220,173039.500,1.450,0.940,-7.620
$EULER,171220,173039.500,295.750,3.812,-2.062
$GPRMC,173039.600,A,3942.3382,N,10515.1634,W,9.33,317.17,201217,,,A*7E
$GYRO,171220,173039.600,2.250,0.000,-1.750
$ACCEL,171220,173039.600,2.460,-0.730,8.990
$LINEAR,171220,173039.600,1.820,-1.070,-0.780
$EULER,171220,173039.600,296.125,3.688,-1.938
$GPRMC,173039.700,A,3942.3385,N,10515.1638,W,9.65,315.96,201217,,,A*7C
$GYRO,171220,173039.700,3.812,-7.750,0.062
$ACCEL,171220,173039.700,1.870,0.210,3.650
$LINEAR,171220,173039.700,1.260,-0.160,-6.120
$EULER,171220,173039.700,296.312,3.562,-2.188
$GPRMC,173039.800,A,3942.3387,N,10515.1641,W,9.82,315.56,201217,,,A*7A
$GYRO,171220,173039.800,6.812,2.188,-6.500
$ACCEL,171220,173039.800,1.690,-0.530,9.820
$LINEAR,171220,173039.800,1.090,-0.950,0.040
$EULER,171220,173039.800,296.562,3.438,-2.438
$GPRMC,173039.900,A,3942.3390,N,10515.1645,W,10.04,315.24,201217,,,A*4A
$GYRO,171220,173039.900,24.625,-3.500,-5.062
$ACCEL,171220,173039.900,1.530,-4.780,14.000
$LINEAR,171220,173039.900,0.990,-5.180,4.210
$EULER,171220,173039.900,296.938,3.125,-2.312
$GPRMC,173040.000,A,3942.3394,N,10515.1650,W,10.28,314.82,201217,,,A*4E
$GYRO,171220,173040.000,6.562,4.438,-4.000
$ACCEL,171220,173040.000,0.130,1.640,5.430
$LINEAR,171220,173040.000,-0.430,1.220,-4.340
$EULER,171220,173040.000,297.375,3.188,-2.438
$GPRMC,173040.100,A,3942.3398,N,10515.1654,W,10.34,314.94,201217,,,A*4D
$GYRO,171220,173040.100,16.375,-8.312,4.125
$ACCEL,171220,173040.100,2.420,1.910,2.600
$LINEAR,171220,173040.100,1.890,1.500,-7.180
$EULER,171220,173040.100,297.562,3.062,-2.500
$GPRMC,173040.200,A,3942.3402,N,10515.1658,W,10.53,315.08,201217,,,A*43
$GYRO,171220,173040.200,-4.375,3.250,-1.125
$ACCEL,171220,173040.200,3.440,-0.800,31.120
$LINEAR,171220,173040.200,2.940,-1.190,21.330
$EULER,171220,173040.200,297.875,2.750,-2.062
$GPRMC,173040.300,A,3942.3406,N,10515.1662,W,10.60,315.24,201217,,,A*41
$GYRO,171220,173040.300,2.875,-9.688,-6.125
$ACCEL,171220,173040.300,1.220,1.660,13.210
$LINEAR,171220,173040.300,0.710,1.310,3.420
$EULER,171220,173040.300,298.312,3.000,-1.938
$GPRMC,173040.400,A,3942.3410,N,10515.1666,W,10.81,315.51,201217,,,A*48
$GYRO,171220,173040.400,-16.562,-16.000,-0.125
$ACCEL,171220,173040.400,1.320,1.460,4.650
$LINEAR,171220,173040.400,0.740,1.190,-5.130
$EULER,171220,173040.400,298.438,3.438,-1.562
$GPRMC,173040.500,A,3942.3414,N,10515.1669,W,10.88,315.69,201217,,,A*40
$GYRO,171220,173040.500,-1.812,-0.438,-0.125
$ACCEL,171220,173040.500,-1.090,-0.120,7.000
$LINEAR,171220,173040.500,-1.670,-0.420,-2.770
$EULER,171220,173040.500,298.562,3.375,-1.750
$GPRMC,173040.600,A,3942.3418,N,10515.1673,W,11.12,315.89,201217,,,A*48
$GYRO,171220,173040.600,-9.688,-0.875,-3.250
$ACCEL,171220,173040.600,0.910,2.330,9.640
$LINEAR,171220,173040.600,0.350,2.020,-0.140
$EULER,171220,173040.600,298.750,3.250,-1.812
$GPRMC,173040.700,A,3942.3422,N,10515.1677,W,11.35,315.98,201217,,,A*41
$GYRO,171220,173040.700,6.688,-3.625,-0.875
$ACCEL,171220,173040.700,0.190,-0.710,8.370
$LINEAR,171220,173040.700,-0.230,0.450,4.450
$EULER,171220,173040.700,298.938,3.188,-1.875
$GPRMC,173040.800,A,3942.3427,N,10515.1680,W,11.61,316.29,201217,,,A*4B
$GYRO,171220,173040.800,3.125,-0.188,-3.000
$ACCEL,171220,173040.800,-1.270,0.570,5.290
$LINEAR,171220,173040.800,-1.840,0.180,-4.490
$EULER,171220,173040.800,299.062,3.250,-2.250
$GPRMC,173040.900,A,3942.3431,N,10515.1685,W,11.98,316.92,201217,,,A*4E
$GYRO,171220,173040.900,-53.000,21.438,-8.000
$ACCEL,171220,173040.900,-0.450,1.070,12.700
$LINEAR,171220,173040.900,-1.040,0.760,2.910
$EULER,171220,173040.900,299.312,3.438,-1.750
$GPRMC,173041.000,A,3942.3436,N,10515.1689,W,12.34,317.51,201217,,,A*46
$GYRO,171220,173041.000,-3.688,-5.562,-1.250
$ACCEL,171220,173041.000,0.510,-0.670,10.240
$LINEAR,171220,173041.000,-0.130,-1.020,0.460
$EULER,171220,173041.000,299.438,3.750,-2.000
$GPRMC,173041.100,A,3942.3440,N,10515.1693,W,12.60,317.52,201217,,,A*4F
$GYRO,171220,173041.100,-5.812,-8.562,0.000
$ACCEL,171220,173041.100,3.610,1.090,8.690
$LINEAR,171220,173041.100,3.270,0.460,-1.610
$EULER,171220,173041.100,299.625,4.062,-1.875
$GPRMC,173041.200,A,3942.3444,N,10515.1697,W,12.84,317.70,201217,,,A*46
$GYRO,171220,173041.200,-16.938,7.562,-3.375
$ACCEL,171220,173041.200,3.300,-0.290,13.470
$LINEAR,171220,173041.200,2.570,-0.550,3.690
$EULER,171220,173041.200,300.000,4.188,-1.500
$GPRMC,173041.300,A,3942.3448,N,10515.1702,W,13.13,317.85,201217,,,A*43
$GYRO,171220,173041.300,-1.562,5.375,-1.625
$ACCEL,171220,173041.300,-0.670,0.040,11.100
$LINEAR,171220,173041.300,-1.370,-0.200,1.320
$EULER,171220,173041.300,300.188,4.125,-1.375
$GPRMC,173041.400,A,3942.3453,N,10515.1706,W,13.46,318.08,201217,,,A*40
$GYRO,171220,173041.400,-2.625,-1.250,-1.438
$ACCEL,171220,173041.400,-0.660,0.170,8.250
$LINEAR,171220,173041.400,-1.320,-0.010,-1.530
$EULER,171220,173041.400,300.312,3.812,-1.062
$GPRMC,173041.500,A,3942.3458,N,10515.1711,W,13.97,318.70,201217,,,A*4F
$GYRO,171220,173041.500,-0.562,-2.500,-1.438
$ACCEL,171220,173041.500,3.100,-0.060,8.740
$LINEAR,171220,173041.500,2.430,-0.220,-1.030
$EULER,171220,173041.500,300.500,3.875,-0.875
$GPRMC,173041.600,A,3942.3463,N,10515.1716,W,14.54,319.40,201217,,,A*49
$GYRO,171220,173041.600,0.812,0.875,-1.188
$ACCEL,171220,173041.600,-0.230,-0.850,11.180
$LINEAR,171220,173041.600,-0.930,-1.020,1.400
$EULER,171220,173041.600,300.625,4.062,-0.938
$GPRMC,173041.700,A,3942.3467,N,10515.1720,W,14.82,319.89,201217,,,A*47
$GYRO,171220,173041.700,-0.438,-1.312,-1.750
$ACCEL,171220,173041.700,1.860,0.180,10.400
$LINEAR,171220,173041.700,1.170,0.020,0.620
$EULER,171220,173041.700,300.750,4.062,-0.938
$GPRMC,173041.800,A,3942.3472,N,10515.1725,W,15.16,320.34,201217,,,A*49
$GYRO,171220,173041.800,0.250,-2.500,-1.750
$ACCEL,171220,173041.800,1.240,-0.010,10.680
$LINEAR,171220,173041.800,0.510,-0.180,0.900
$EULER,171220,173041.800,300.938,4.250,-0.938
$GPRMC,173041.900,A,3942.3476,N,10515.1729,W,15.50,320.86,201217,,,A*4B
$GYRO,171220,173041.900,-0.250,-1.000,-1.812
$ACCEL,171220,173041.900,1.180,-0.180,8.910
$LINEAR,171220,173041.900,0.440,-0.360,-0.860
$EULER,171220,173041.900,301.125,4.312,-1.000
$GPRMC,173042.000,A,3942.3481,N,10515.1734,W,15.83,321.37,201217,,,A*40
$GYRO,171220,173042.000,1.062,-0.438,-1.938
$ACCEL,171220,173042.000,1.700,-0.120,9.810
$LINEAR,171220,173042.000,0.930,-0.290,0.040
$EULER,171220,173042.000,301.312,4.500,-1.000
$GPRMC,173042.100,A,3942.3485,N,10515.1738,W,16.05,321.55,201217,,,A*40
$GYRO,171220,173042.100,-1.812,0.562,-2.188
$ACCEL,171220,173042.100,0.920,-0.340,11.020
$LINEAR,171220,173042.100,0.160,-0.490,1.240
$EULER,171220,173042.100,301.500,4.375,-0.875
$GPRMC,173042.200,A,3942.3490,N,10515.1743,W,16.24,321.68,201217,,,A*46
$GYRO,171220,173042.200,-1.500,0.500,-3.375
$ACCEL,171220,173042.200,1.670,-0.580,9.730
$LINEAR,171220,173042.200,0.890,-0.680,-0.040
$EULER,171220,173042.200,301.750,4.562,-0.562
$GPRMC,173042.300,A,3942.3494,N,10515.1747,W,16.44,321.84,201217,,,A*43
$GYRO,171220,173042.300,-3.438,-0.188,-3.625
$ACCEL,171220,173042.300,1.740,-0.620,9.720
$LINEAR,171220,173042.300,0.940,-0.710,-0.040
$EULER,171220,173042.300,302.125,4.625,-0.438
$GPRMC,173042.400,A,3942.3498,N,10515.1751,W,16.62,322.02,201217,,,A*46
$GYRO,171220,173042.400,-0.438,1.250,-3.688
$ACCEL,171220,173042.400,1.440,-0.550,10.320
$LINEAR,171220,173042.400,0.650,-0.620,0.550
$EULER,171220,173042.400,302.500,4.625,-0.438
$GPRMC,173042.500,A,3942.3503,N,10515.1756,W,16.81,322.29,201217,,,A*47
$GYRO,171220,173042.500,0.500,2.312,-4.312
$ACCEL,171220,173042.500,1.140,-0.780,9.410
$LINEAR,171220,173042.500,0.600,-0.770,-0.150
$EULER,171220,173042.500,302.875,4.688,-0.250
$GPRMC,173042.600,A,3942.3507,N,10515.1760,W,17.01,322.52,201217,,,A*40
$GYRO,171220,173042.600,0.625,-0.438,-5.812
$ACCEL,171220,173042.600,0.710,-1.080,9.340
$LINEAR,171220,173042.600,0.350,-1.770,0.080
$EULER,171220,173042.600,303.375,4.750,-0.375
$GPRMC,173042.700,A,3942.3512,N,10515.1764,W,17.22,322.72,201217,,,A*42
$GYRO,171220,173042.700,1.750,2.125,-7.000
$ACCEL,171220,173042.700,0.440,-1.640,11.760
$LINEAR,171220,173042.700,-0.280,-1.380,0.820
$EULER,171220,173042.700,304.000,4.750,-0.375
$GPRMC,173042.800,A,3942.3517,N,10515.1769,W,17.43,322.89,201217,,,A*46
$GYRO,171220,173042.800,1.625,-0.062,-8.000
$ACCEL,171220,173042.800,0.250,-1.410,10.330
$LINEAR,171220,173042.800,-0.710,-1.310,0.800
$EULER,171220,173042.800,304.750,4.688,-0.625
$GPRMC,173042.900,A,3942.3521,N,10515.1773,W,17.61,323.12,201217,,,A*4A
$GYRO,171220,173042.900,0.562,-1.438,-8.438
$ACCEL,171220,173042.900,-0.040,-0.960,10.320
$LINEAR,171220,173042.900,-0.970,-1.790,0.470
$EULER,171220,173042.900,305.562,4.750,-0.750
$GPRMC,173043.000,A,3942.3526,N,10515.1777,W,17.78,323.32,201217,,,A*4B
$GYRO,171220,173043.000,0.188,-0.750,-8.438
$ACCEL,171220,173043.000,-0.030,-1.610,9.430
$LINEAR,171220,173043.000,-0.600,-1.950,0.240
$EULER,171220,173043.000,306.375,4.750,-0.625
$GPRMC,173043.100,A,3942.3531,N,10515.1782,W,17.86,323.50,201217,,,A*43
$GYRO,171220,173043.100,0.750,-2.312,-8.500
$ACCEL,171220,173043.100,-0.100,-1.710,9.640
$LINEAR,171220,173043.100,-0.940,-1.860,0.100
$EULER,171220,173043.100,307.188,4.875,-0.812
$GPRMC,173043.200,A,3942.3536,N,10515.1786,W,18.09,323.72,201217,,,A*4B
$GYRO,171220,173043.200,2.875,0.375,-8.625
$ACCEL,171220,173043.200,-0.160,-2.040,10.650
$LINEAR,171220,173043.200,-0.810,-2.090,0.470
$EULER,171220,173043.200,308.000,5.000,-0.938
$GPRMC,173043.300,A,3942.3541,N,10515.1790,W,18.29,323.92,201217,,,A*41
$GYRO,171220,173043.300,0.125,0.062,-8.562
$ACCEL,171220,173043.300,0.080,-1.180,8.740
$LINEAR,171220,173043.300,-0.780,-1.360,-1.010
$EULER,171220,173043.300,308.875,5.062,-1.062
$GPRMC,173043.400,A,3942.3546,N,10515.1795,W,18.50,324.15,201217,,,A*42
$GYRO,171220,173043.400,-0.875,-1.938,-8.812
$ACCEL,171220,173043.400,-0.020,-1.260,9.370
$LINEAR,171220,173043.400,-0.890,-1.460,-0.380
$EULER,171220,173043.400,309.625,5.062,-1.125
$GPRMC,173043.500,A,3942.3552,N,10515.1799,W,18.74,324.45,201217,,,A*49
$GYRO,171220,173043.500,-1.688,-1.125,-8.938
$ACCEL,171220,173043.500,0.250,-1.570,9.660
$LINEAR,171220,173043.500,-0.610,-1.760,-0.090
$EULER,171220,173043.500,310.562,5.062,-1.062
$GPRMC,173043.600,A,3942.3557,N,10515.1804,W,18.93,324.80,201217,,,A*44
$GYRO,171220,173043.600,-2.688,-3.188,-8.938
$ACCEL,171220,173043.600,0.380,-1.100,10.100
$LINEAR,171220,173043.600,-0.520,-1.290,0.330
$EULER,171220,173043.600,311.438,5.312,-1.062
$GPRMC,173043.700,A,3942.3563,N,10515.1808,W,19.01,325.10,201217,,,A*4C
$GYRO,171220,173043.700,-2.688,-0.562,-8.938
$ACCEL,171220,173043.700,0.140,-0.560,9.180
$LINEAR,171220,173043.700,-0.770,-0.730,-0.570
$EULER,171220,173043.700,312.312,5.375,-0.938
$GPRMC,173043.800,A,3942.3569,N,10515.1813,W,19.27,325.42,201217,,,A*40
$GYRO,171220,173043.800,-2.688,0.000,-9.000
$ACCEL,171220,173043.800,0.090,-1.830,9.630
$LINEAR,171220,173043.800,-0.810,-2.000,-0.120
$EULER,171220,173043.800,313.125,5.312,-1.000
$GPRMC,173043.900,A,3942.3574,N,10515.1817,W,19.43,325.76,201217,,,A*4C
$GYRO,171220,173043.900,-0.125,-0.625,-9.625
$ACCEL,171220,173043.900,-0.080,-1.660,9.640
$LINEAR,171220,173043.900,-0.990,-1.770,-0.110
$EULER,171220,173043.900,314.062,5.250,-0.625
$GPRMC,173044.000,A,3942.3580,N,10515.1821,W,19.48,326.10,201217,,,A*44
$GYRO,171220,173044.000,-2.562,-2.875,-10.375
$ACCEL,171220,173044.000,-0.040,-2.200,10.570
$LINEAR,171220,173044.000,-0.960,-2.320,0.810
$EULER,171220,173044.000,315.000,5.375,-0.625
$GPRMC,173044.100,A,3942.3588,N,10515.1826,W,19.54,326.45,201217,,,A*47
$GYRO,171220,173044.100,1.125,-0.938,-9.750
$ACCEL,171220,173044.100,0.660,-1.750,9.870
$LINEAR,171220,173044.100,-0.260,-1.870,0.100
$EULER,171220,173044.100,315.938,5.438,-0.688
$GPRMC,173044.200,A,3942.3594,N,10515.1831,W,19.57,326.79,201217,,,A*43
$GYRO,171220,173044.200,-0.438,-1.500,-9.312
$ACCEL,171220,173044.200,1.690,-0.990,10.310
$LINEAR,171220,173044.200,0.720,-1.120,0.550
$EULER,171220,173044.200,316.875,5.625,-0.688
$GPRMC,173044.300,A,3942.3600,N,10515.1835,W,19.58,327.19,201217,,,A*40
$GYRO,171220,173044.300,1.562,2.312,-9.188
$ACCEL,171220,173044.300,0.740,-1.680,10.270
$LINEAR,171220,173044.300,-0.220,-1.830,0.510
$EULER,171220,173044.300,317.750,5.625,-0.812
$GPRMC,173044.400,A,3942.3607,N,10515.1839,W,19.58,327.70,201217,,,A*43
$GYRO,171220,173044.400,-1.312,-1.812,-10.312
$ACCEL,171220,173044.400,1.330,-1.240,9.970
$LINEAR,171220,173044.400,0.340,-1.380,0.210
$EULER,171220,173044.400,318.750,5.750,-0.812
$GPRMC,173044.500,A,3942.3613,N,10515.1842,W,19.58,328.41,201217,,,A*46
$GYRO,171220,173044.500,-3.188,0.375,-11.188
$ACCEL,171220,173044.500,0.620,-1.520,8.790
$LINEAR,171220,173044.500,-0.370,-1.660,-0.950
$EULER,171220,173044.500,319.812,5.812,-0.750
$GPRMC,173044.600,A,3942.3619,N,10515.1845,W,19.53,329.13,201217,,,A*45
$GYRO,171220,173044.600,-2.688,0.875,-11.938
$ACCEL,171220,173044.600,1.400,-1.780,8.850
$LINEAR,171220,173044.600,0.420,-1.900,-0.900
$EULER,171220,173044.600,320.938,5.688,-0.688
$GPRMC,173044.700,A,3942.3625,N,10515.1849,W,19.49,329.89,201217,,,A*4F
$GYRO,171220,173044.700,-4.812,-1.000,-12.375
$ACCEL,171220,173044.700,1.410,-1.840,10.840
$LINEAR,171220,173044.700,0.460,-1.940,1.080
$EULER,171220,173044.700,322.062,5.562,-0.562
$GPRMC,173044.800,A,3942.3631,N,10515.1852,W,19.47,330.74,201217,,,A*4B
$GYRO,171220,173044.800,-3.375,2.188,-11.812
$ACCEL,171220,173044.800,1.650,-1.460,10.120
$LINEAR,171220,173044.800,0.710,-1.530,0.360
$EULER,171220,173044.800,323.250,5.438,-0.375
$GPRMC,173044.900,A,3942.3637,N,10515.1855,W,19.48,331.45,201217,,,A*47
$GYRO,171220,173044.900,-0.125,-0.188,-12.188
$ACCEL,171220,173044.900,0.560,-1.920,10.510
$LINEAR,171220,173044.900,-0.380,-1.930,0.750
$EULER,171220,173044.900,324.438,5.562,0.000
$GPRMC,173045.000,A,3942.3643,N,10515.1858,W,19.51,332.27,201217,,,A*4E
$GYRO,171220,173045.000,-3.125,-1.125,-13.000
$ACCEL,171220,173045.000,1.500,-1.980,10.040
$LINEAR,171220,173045.000,0.530,-1.980,0.280
$EULER,171220,173045.000,325.688,5.625,0.000
$GPRMC,173045.100,A,3942.3649,N,10515.1861,W,19.55,332.94,201217,,,A*43
$GYRO,171220,173045.100,1.312,2.875,-13.000
$ACCEL,171220,173045.100,0.790,-1.720,8.040
$LINEAR,171220,173045.100,-0.180,-1.650,-1.710
$EULER,171220,173045.100,326.938,5.688,0.375
$GPRMC,173045.200,A,3942.3655,N,10515.1864,W,19.59,333.68,201217,,,A*46
$GYRO,171220,173045.200,-0.312,-0.375,-13.000
$ACCEL,171220,173045.200,1.760,-2.170,9.440
$LINEAR,171220,173045.200,0.820,-2.140,-0.310
$EULER,171220,173045.200,328.188,5.500,0.125
$GPRMC,173045.300,A,3942.3661,N,10515.1867,W,19.61,334.32,201217,,,A*40
$GYRO,171220,173045.300,-3.625,-0.562,-12.750
$ACCEL,171220,173045.300,0.990,-1.930,10.310
$LINEAR,171220,173045.300,0.720,-1.600,0.700
$EULER,171220,173045.300,329.438,5.500,0.125
$GPRMC,173045.400,A,3942.3666,N,10515.1870,W,19.61,334.89,201217,,,A*46
$GYRO,171220,173045.400,-2.188,-1.188,-12.375
$ACCEL,171220,173045.400,1.660,-1.680,7.830
$LINEAR,171220,173045.400,1.040,-2.060,-0.200
$EULER,171220,173045.400,330.688,5.438,0.188
$GPRMC,173045.500,A,3942.3671,N,10515.1872,W,19.58,335.50,201217,,,A*4C
$GYRO,171220,173045.500,-1.500,1.438,-12.250
$ACCEL,171220,173045.500,1.050,-1.400,8.230
$LINEAR,171220,173045.500,0.760,-1.760,-1.140
$EULER,171220,173045.500,331.875,5.375,0.188
$GPRMC,173045.600,A,3942.3676,N,10515.1875,W,19.54,335.86,201217,,,A*48
$GYRO,171220,173045.600,-1.375,0.500,-12.688
$ACCEL,171220,173045.600,1.570,-1.820,10.030
$LINEAR,171220,173045.600,0.550,-1.250,0.470
$EULER,171220,173045.600,333.062,5.312,0.188
$GPRMC,173045.700,A,3942.3681,N,10515.1878,W,19.38,336.23,201217,,,A*4A
$GYRO,171220,173045.700,2.438,2.375,-12.250
$ACCEL,171220,173045.700,1.550,-1.770,10.370
$LINEAR,171220,173045.700,0.910,-1.770,-0.290
$EULER,171220,173045.700,334.312,5.250,0.125
$GPRMC,173045.800,A,3942.3686,N,10515.1881,W,19.35,336.54,201217,,,A*49
$GYRO,171220,173045.800,2.312,0.438,-12.125
$ACCEL,171220,173045.800,1.540,-2.370,9.230
$LINEAR,171220,173045.800,0.120,-1.930,1.230
$EULER,171220,173045.800,335.438,5.312,-0.062
$GPRMC,173045.900,A,3942.3692,N,10515.1883,W,19.33,336.93,201217,,,A*42
$GYRO,171220,173045.900,2.312,2.500,-11.875
$ACCEL,171220,173045.900,1.560,-1.070,9.600
$LINEAR,171220,173045.900,0.740,-1.480,-1.890
$EULER,171220,173045.900,336.625,5.125,-0.312
$GPRMC,173046.000,A,3942.3697,N,10515.1886,W,19.30,337.30,201217,,,A*43
$GYRO,171220,173046.000,0.562,-0.312,-12.062
$ACCEL,171220,173046.000,1.290,-1.300,8.890
$LINEAR,171220,173046.000,0.450,-2.010,-0.390
$EULER,171220,173046.000,337.812,5.062,-0.438
$GPRMC,173046.100,A,3942.3702,N,10515.1888,W,19.28,337.66,201217,,,A*4B
$GYRO,171220,173046.100,5.938,4.000,-10.812
$ACCEL,171220,173046.100,2.460,-0.850,12.680
$LINEAR,171220,173046.100,1.630,-1.000,2.910
$EULER,171220,173046.100,338.875,4.812,-0.875
$GPRMC,173046.200,A,3942.3707,N,10515.1890,W,19.24,338.06,201217,,,A*41
$GYRO,171220,173046.200,3.938,4.625,-10.000
$ACCEL,171220,173046.200,2.120,-1.290,11.630
$LINEAR,171220,173046.200,1.300,-1.470,1.860
$EULER,171220,173046.200,339.875,4.750,-1.062
$GPRMC,173046.300,A,3942.3711,N,10515.1892,W,19.21,338.47,201217,,,A*45
$GYRO,171220,173046.300,-0.938,-3.375,-9.938
$ACCEL,171220,173046.300,1.580,-0.470,7.850
$LINEAR,171220,173046.300,0.770,-0.690,-1.910
$EULER,171220,173046.300,340.875,4.750,-1.250
$GPRMC,173046.400,A,3942.3716,N,10515.1894,W,19.18,338.92,201217,,,A*41
$GYRO,171220,173046.400,-3.812,-0.938,-9.375
$ACCEL,171220,173046.400,1.620,-0.820,9.430
$LINEAR,171220,173046.400,0.800,-1.060,-0.330
$EULER,171220,173046.400,341.750,4.750,-1.375
$GPRMC,173046.500,A,3942.3721,N,10515.1896,W,19.14,339.41,201217,,,A*45
$GYRO,171220,173046.500,-1.188,-0.250,-8.812
$ACCEL,171220,173046.500,1.420,-0.240,9.070
$LINEAR,171220,173046.500,0.620,-0.470,-0.690
$EULER,171220,173046.500,342.562,4.625,-1.375
$GPRMC,173046.600,A,3942.3727,N,10515.1898,W,19.11,339.94,201217,,,A*43
$GYRO,171220,173046.600,-2.375,-3.812,-8.312
$ACCEL,171220,173046.600,1.510,-0.200,9.850
$LINEAR,171220,173046.600,0.690,-0.440,0.080
$EULER,171220,173046.600,343.375,4.750,-1.375
$GPRMC,173046.700,A,3942.3732,N,10515.1899,W,19.09,340.47,201217,,,A*4E
$GYRO,171220,173046.700,-1.375,-1.312,-7.125
$ACCEL,171220,173046.700,1.750,-0.840,9.940
$LINEAR,171220,173046.700,0.900,-1.080,0.170
$EULER,171220,173046.700,344.188,4.938,-1.375
$GPRMC,173046.800,A,3942.3737,N,10515.1901,W,19.08,341.03,201217,,,A*44
$GYRO,171220,173046.800,-1.312,-0.625,-6.562
$ACCEL,171220,173046.800,1.860,-0.630,11.060
$LINEAR,171220,173046.800,0.990,-0.860,1.300
$EULER,171220,173046.800,344.875,5.000,-1.312
$GPRMC,173046.900,A,3942.3742,N,10515.1902,W,19.09,341.61,201217,,,A*41
$GYRO,171220,173046.900,0.438,2.250,-6.000
$ACCEL,171220,173046.900,0.950,0.040,8.960
$LINEAR,171220,173046.900,0.070,-0.170,-0.800
$EULER,171220,173046.900,345.500,5.062,-1.188
$GPRMC,173047.000,A,3942.3748,N,10515.1904,W,19.10,342.23,201217,,,A*48
$GYRO,171220,173047.000,-2.250,-1.000,-4.938
$ACCEL,171220,173047.000,1.180,0.160,9.230
$LINEAR,171220,173047.000,0.320,-0.030,-0.530
$EULER,171220,173047.000,346.000,5.000,-1.188
$GPRMC,173047.100,A,3942.3753,N,10515.1905,W,19.12,342.91,201217,,,A*49
$GYRO,171220,173047.100,1.250,0.000,-4.250
$ACCEL,171220,173047.100,1.850,0.500,9.840
$LINEAR,171220,173047.100,0.980,0.300,0.070
$EULER,171220,173047.100,346.438,5.062,-1.125
$GPRMC,173047.200,A,3942.3759,N,10515.1906,W,19.14,343.59,201217,,,A*40
$GYRO,171220,173047.200,-2.188,-4.250,-2.812
$ACCEL,171220,173047.200,1.880,0.120,8.360
$LINEAR,171220,173047.200,1.000,-0.060,-1.400
$EULER,171220,173047.200,346.812,5.125,-1.125
$GPRMC,173047.300,A,3942.3764,N,10515.1907,W,19.18,344.25,201217,,,A*4E
$GYRO,171220,173047.300,0.125,0.062,-0.750
$ACCEL,171220,173047.300,1.600,0.670,8.890
$LINEAR,171220,173047.300,0.700,0.480,-0.860
$EULER,171220,173047.300,347.000,5.250,-1.125
$GPRMC,173047.400,A,3942.3770,N,10515.1907,W,19.22,345.23,201217,,,A*42
$GYRO,171220,173047.400,-1.812,0.812,0.875
$ACCEL,171220,173047.400,1.560,0.970,8.900
$LINEAR,171220,173047.400,0.620,0.720,-0.850
$EULER,171220,173047.400,347.000,5.500,-1.438
$GPRMC,173047.500,A,3942.3775,N,10515.1908,W,19.27,346.15,201217,,,A*4A
$GYRO,171220,173047.500,0.438,1.250,1.188
$ACCEL,171220,173047.500,1.280,0.700,9.840
$LINEAR,171220,173047.500,0.330,0.420,0.080
$EULER,171220,173047.500,346.875,5.562,-1.562
$GPRMC,173047.600,A,3942.3781,N,10515.1908,W,19.31,347.05,201217,,,A*45
$GYRO,171220,173047.600,0.062,-0.125,0.562
$ACCEL,171220,173047.600,1.590,0.240,9.480
$LINEAR,171220,173047.600,0.630,-0.020,-0.270
$EULER,171220,173047.600,346.875,5.562,-1.562
$GPRMC,173047.700,A,3942.3786,N,10515.1908,W,19.35,347.90,201217,,,A*4B
$GYRO,171220,173047.700,1.250,-0.125,-0.062
$ACCEL,171220,173047.700,0.900,0.010,11.110
$LINEAR,171220,173047.700,-0.050,-0.250,1.350
$EULER,171220,173047.700,346.875,5.562,-1.500
$GPRMC,173047.800,A,3942.3792,N,10515.1908,W,19.39,348.77,201217,,,A*4B
$GYRO,171220,173047.800,0.938,5.312,-0.688
$ACCEL,171220,173047.800,-0.160,0.620,9.240
$LINEAR,171220,173047.800,-1.070,0.370,-0.510
$EULER,171220,173047.800,346.875,5.312,-1.438
$GPRMC,173047.900,A,3942.3798,N,10515.1908,W,19.43,349.64,201217,,,A*4E
$GYRO,171220,173047.900,1.375,2.812,-0.438
$ACCEL,171220,173047.900,-0.180,-0.060,10.860
$LINEAR,171220,173047.900,-1.020,-0.040,1.450
$EULER,171220,173047.900,346.875,5.188,-1.562
$GPRMC,173048.000,A,3942.3805,N,10515.1907,W,19.48,350.47,201217,,,A*4E
$GYRO,171220,173048.000,-2.188,-3.062,-0.688
$ACCEL,171220,173048.000,-0.310,1.310,6.720
$LINEAR,171220,173048.000,-2.310,0.390,-2.130
$EULER,171220,173048.000,347.000,5.312,-1.562
$GPRMC,173048.100,A,3942.3811,N,10515.1906,W,19.54,351.28,201217,,,A*4E
$GYRO,171220,173048.100,-2.312,0.812,-0.250
$ACCEL,171220,173048.100,0.500,0.040,4.690
$LINEAR,171220,173048.100,-0.390,-0.230,-5.060
$EULER,171220,173048.100,347.062,5.250,-1.562
$GPRMC,173048.200,A,3942.3818,N,10515.1906,W,19.72,352.06,201217,,,A*4F
$GYRO,171220,173048.200,3.500,4.500,-0.375
$ACCEL,171220,173048.200,-0.130,0.370,12.000
$LINEAR,171220,173048.200,-0.710,-0.080,-0.910
$EULER,171220,173048.200,347.125,5.125,-1.688
$GPRMC,173048.300,A,3942.3824,N,10515.1905,W,19.76,352.76,201217,,,A*41
$GYRO,171220,173048.300,2.438,3.688,-1.438
$ACCEL,171220,173048.300,-0.040,-0.220,13.040
$LINEAR,171220,173048.300,-1.300,0.120,-1.970
$EULER,171220,173048.300,347.125,5.062,-1.688
$GPRMC,173048.400,A,3942.3830,N,10515.1905,W,19.83,353.44,201217,,,A*49
$GYRO,171220,173048.400,0.375,-2.312,-1.000
$ACCEL,171220,173048.400,-0.080,0.630,10.850
$LINEAR,171220,173048.400,-0.850,0.070,-0.490
$EULER,171220,173048.400,347.250,5.188,-1.688
$GPRMC,173048.500,A,3942.3836,N,10515.1904,W,19.90,354.14,201217,,,A*4F
$GYRO,171220,173048.500,0.688,-2.562,-0.375
$ACCEL,171220,173048.500,1.910,0.480,10.240
$LINEAR,171220,173048.500,-0.520,0.100,-0.740
$EULER,171220,173048.500,347.250,5.312,-1.688
$GPRMC,173048.600,A,3942.3842,N,10515.1903,W,20.08,354.93,201217,,,A*4C
$GYRO,171220,173048.600,-1.375,-2.625,-0.438
$ACCEL,171220,173048.600,1.550,0.450,9.160
$LINEAR,171220,173048.600,0.100,0.020,-1.610
$EULER,171220,173048.600,347.250,5.438,-1.688
$GPRMC,173048.700,A,3942.3849,N,10515.1902,W,20.15,355.65,201217,,,A*43
$GYRO,171220,173048.700,-0.312,-1.438,-0.500
$ACCEL,171220,173048.700,1.670,0.950,11.510
$LINEAR,171220,173048.700,-0.250,0.390,-1.110
$EULER,171220,173048.700,347.250,5.500,-1.688
$GPRMC,173048.800,A,3942.3855,N,10515.1901,W,20.22,356.30,201217,,,A*45
$GYRO,171220,173048.800,1.438,2.688,-0.062
$ACCEL,171220,173048.800,1.490,0.300,10.710
$LINEAR,171220,173048.800,0.550,0.000,0.950
$EULER,171220,173048.800,347.250,5.438,-1.750
$GPRMC,173048.900,A,3942.3861,N,10515.1900,W,20.30,356.92,201217,,,A*49
$GYRO,171220,173048.900,-1.312,-0.875,-0.250
$ACCEL,171220,173048.900,1.550,0.590,9.280
$LINEAR,171220,173048.900,0.620,0.290,-0.470
$EULER,171220,173048.900,347.250,5.500,-1.688
$GPRMC,173049.000,A,3942.3868,N,10515.1899,W,20.50,357.47,201217,,,A*46
$GYRO,171220,173049.000,0.500,-2.188,-0.188
$ACCEL,171220,173049.000,1.560,0.650,9.110
$LINEAR,171220,173049.000,0.620,0.350,-0.630
$EULER,171220,173049.000,347.250,5.500,-1.750
$GPRMC,173049.100,A,3942.3874,N,10515.1898,W,20.55,358.00,201217,,,A*42
$GYRO,171220,173049.100,1.812,4.000,-0.125
$ACCEL,171220,173049.100,1.630,0.020,9.520
$LINEAR,171220,173049.100,0.690,-0.300,-0.230
$EULER,171220,173049.100,347.250,5.500,-1.938
$GPRMC,173049.200,A,3942.3880,N,10515.1898,W,20.61,358.51,201217,,,A*49
$GYRO,171220,173049.200,-0.625,-5.062,-0.438
$ACCEL,171220,173049.200,1.920,1.020,7.890
$LINEAR,171220,173049.200,0.980,0.680,-1.850
$EULER,171220,173049.200,347.250,5.438,-1.938
$GPRMC,173049.300,A,3942.3887,N,10515.1897,W,20.68,358.93,201217,,,A*47
$GYRO,171220,173049.300,0.312,-1.938,-0.125
$ACCEL,171220,173049.300,1.210,0.160,9.520
$LINEAR,171220,173049.300,0.280,-0.200,-0.230
$EULER,171220,173049.300,347.250,5.438,-2.125
$GPRMC,173049.400,A,3942.3893,N,10515.1896,W,20.74,359.36,201217,,,A*47
$GYRO,171220,173049.400,-0.188,1.688,0.312
$ACCEL,171220,173049.400,1.390,1.070,8.220
$LINEAR,171220,173049.400,0.490,0.670,-1.520
$EULER,171220,173049.400,347.250,5.250,-2.312
$GPRMC,173049.500,A,3942.3899,N,10515.1895,W,20.81,359.75,201217,,,A*42
$GYRO,171220,173049.500,1.562,2.312,0.000
$ACCEL,171220,173049.500,1.150,0.490,9.840
$LINEAR,171220,173049.500,0.220,0.070,0.080
$EULER,171220,173049.500,347.250,5.438,-2.438
$GPRMC,173049.600,A,3942.3906,N,10515.1894,W,21.00,0.23,201217,,,A*43
$GYRO,171220,173049.600,0.250,1.875,-0.125
$ACCEL,171220,173049.600,1.350,1.410,9.590
$LINEAR,171220,173049.600,0.430,0.960,-0.150
$EULER,171220,173049.600,347.250,5.375,-2.625
$GPRMC,173049.700,A,3942.3912,N,10515.1893,W,21.06,0.69,201217,,,A*48
$GYRO,171220,173049.700,0.812,-1.438,-0.188
$ACCEL,171220,173049.700,1.880,0.980,9.400
$LINEAR,171220,173049.700,0.940,0.500,-0.340
$EULER,171220,173049.700,347.250,5.500,-2.812
$GPRMC,173049.800,A,3942.3919,N,10515.1892,W,21.24,1.09,201217,,,A*4A
$GYRO,171220,173049.800,1.688,0.312,-0.062
$ACCEL,171220,173049.800,0.760,1.330,7.510
$LINEAR,171220,173049.800,-0.200,0.810,-2.230
$EULER,171220,173049.800,347.250,5.688,-3.000
$GPRMC,173049.900,A,3942.3925,N,10515.1891,W,21.29,1.49,201217,,,A*4E
$GYRO,171220,173049.900,2.188,1.188,-0.062
$ACCEL,171220,173049.900,1.940,0.760,9.820
$LINEAR,171220,173049.900,0.970,0.240,0.070
$EULER,171220,173049.900,347.250,5.688,-3.062
$GPRMC,173050.000,A,3942.3932,N,10515.1889,W,21.47,1.96,201217,,,A*4A
$GYRO,171220,173050.000,2.062,2.688,-0.062
$ACCEL,171220,173050.000,2.460,0.990,13.050
$LINEAR,171220,173050.000,1.490,0.460,3.310
$EULER,171220,173050.000,347.250,5.688,-3.062
$GPRMC,173050.100,A,3942.3939,N,10515.1888,W,21.49,2.30,201217,,,A*40
$GYRO,171220,173050.100,-0.688,0.188,0.125
$ACCEL,171220,173050.100,1.810,1.140,11.300
$LINEAR,171220,173050.100,0.830,0.600,1.550
$EULER,171220,173050.100,347.250,5.688,-3.125
$GPRMC,173050.200,A,3942.3945,N,10515.1887,W,21.52,2.64,201217,,,A*4C
$GYRO,171220,173050.200,1.000,-0.875,0.500
$ACCEL,171220,173050.200,1.920,0.880,9.670
$LINEAR,171220,173050.200,0.940,0.330,-0.060
$EULER,171220,173050.200,347.250,5.688,-3.188
$GPRMC,173050.300,A,3942.3952,N,10515.1886,W,21.59,3.00,201217,,,A*42
$GYRO,171220,173050.300,0.875,2.125,1.375
$ACCEL,171220,173050.300,1.290,1.500,11.190
$LINEAR,171220,173050.300,0.610,0.300,0.730
$EULER,171220,173050.300,347.125,5.688,-3.250
$GPRMC,173050.400,A,3942.3958,N,10515.1884,W,21.76,3.34,201217,,,A*47
$GYRO,171220,173050.400,1.375,-0.062,1.000
$ACCEL,171220,173050.400,1.800,1.580,10.360
$LINEAR,171220,173050.400,0.800,0.770,1.860
$EULER,171220,173050.400,347.000,5.688,-3.250
$GPRMC,173050.500,A,3942.3965,N,10515.1883,W,21.83,3.63,201217,,,A*47
$GYRO,171220,173050.500,0.688,0.062,0.875
$ACCEL,171220,173050.500,1.710,0.340,10.380
$LINEAR,171220,173050.500,0.740,-0.220,0.640
$EULER,171220,173050.500,346.938,5.688,-3.312
$GPRMC,173050.600,A,3942.3972,N,10515.1881,W,22.03,3.92,201217,,,A*45
$GYRO,171220,173050.600,1.500,1.875,0.750
$ACCEL,171220,173050.600,1.620,0.960,10.770
$LINEAR,171220,173050.600,0.770,0.330,1.150
$EULER,171220,173050.600,346.812,5.625,-3.312
$GPRMC,173050.700,A,3942.3979,N,10515.1879,W,22.18,4.25,201217,,,A*49
$GYRO,171220,173050.700,0.688,-3.875,0.562
$ACCEL,171220,173050.700,1.810,0.930,9.000
$LINEAR,171220,173050.700,0.830,0.340,-0.730
$EULER,171220,173050.700,346.750,5.688,-3.438
$GPRMC,173050.800,A,3942.3986,N,10515.1877,W,22.39,4.58,201217,,,A*41
$GYRO,171220,173050.800,0.438,1.688,0.875
$ACCEL,171220,173050.800,1.240,1.360,11.000
$LINEAR,171220,173050.800,0.260,0.770,1.260
$EULER,171220,173050.800,346.688,5.688,-3.500
$GPRMC,173050.900,A,3942.3993,N,10515.1876,W,22.46,4.90,201217,,,A*49
$GYRO,171220,173050.900,0.688,2.188,0.625
$ACCEL,171220,173050.900,1.220,1.000,11.140
$LINEAR,171220,173050.900,0.250,0.390,1.400
$EULER,171220,173050.900,346.625,5.688,-3.500
$GPRMC,173051.000,A,3942.4001,N,10515.1874,W,22.72,5.15,201217,,,A*4D
$GYRO,171220,173051.000,0.000,3.375,0.812
$ACCEL,171220,173051.000,1.050,1.550,11.930
$LINEAR,171220,173051.000,0.070,0.960,2.190
$EULER,171220,173051.000,346.562,5.625,-3.438
$GPRMC,173051.100,A,3942.4008,N,10515.1872,W,22.79,5.48,201217,,,A*40
$GYRO,171220,173051.100,-3.062,-2.625,0.375
$ACCEL,171220,173051.100,1.210,1.370,7.950
$LINEAR,171220,173051.100,0.240,0.780,-1.780
$EULER,171220,173051.100,346.500,5.688,-3.375
$GPRMC,173051.200,A,3942.4015,N,10515.1871,W,22.95,5.67,201217,,,A*43
$GYRO,171220,173051.200,-4.250,-1.750,0.500
$ACCEL,171220,173051.200,1.420,1.300,10.370
$LINEAR,171220,173051.200,0.420,0.760,0.630
$EULER,171220,173051.200,346.500,5.812,-3.188
$GPRMC,173051.300,A,3942.4021,N,10515.1869,W,23.00,5.84,201217,,,A*4C
$GYRO,171220,173051.300,2.500,0.938,0.625
$ACCEL,171220,173051.300,1.610,0.150,10.550
$LINEAR,171220,173051.300,0.620,-0.410,0.810
$EULER,171220,173051.300,346.438,5.750,-3.312
$GPRMC,173051.400,A,3942.4029,N,10515.1867,W,23.18,5.95,201217,,,A*44
$GYRO,171220,173051.400,-3.938,-5.750,-0.250
$ACCEL,171220,173051.400,1.390,1.400,8.920
$LINEAR,171220,173051.400,0.360,0.880,-0.810
$EULER,171220,173051.400,346.500,6.000,-3.000
$GPRMC,173051.500,A,3942.4036,N,10515.1866,W,23.34,6.09,201217,,,A*42
$GYRO,171220,173051.500,1.688,-0.062,0.438
$ACCEL,171220,173051.500,1.540,0.560,10.670
$LINEAR,171220,173051.500,0.490,0.020,0.940
$EULER,171220,173051.500,346.500,6.125,-3.125
$GPRMC,173051.600,A,3942.4043,N,10515.1864,W,23.51,6.23,201217,,,A*4A
$GYRO,171220,173051.600,-2.125,0.188,-0.375
$ACCEL,171220,173051.600,1.430,1.990,8.150
$LINEAR,171220,173051.600,0.390,1.500,-1.580
$EULER,171220,173051.600,346.500,6.062,-2.875
$GPRMC,173051.700,A,3942.4051,N,10515.1862,W,23.59,6.43,201217,,,A*40
$GYRO,171220,173051.700,-0.812,1.062,0.375
$ACCEL,171220,173051.700,1.020,0.920,9.190
$LINEAR,171220,173051.700,-0.010,0.430,-0.540
$EULER,171220,173051.700,346.500,6.062,-2.812
$GPRMC,173051.800,A,3942.4058,N,10515.1860,W,23.84,6.59,201217,,,A*4F
$GYRO,171220,173051.800,1.000,-1.000,0.000
$ACCEL,171220,173051.800,1.590,0.460,8.850
$LINEAR,171220,173051.800,0.560,-0.020,-0.880
$EULER,171220,173051.800,346.500,6.062,-2.812
$GPRMC,173051.900,A,3942.4065,N,10515.1858,W,23.91,6.78,201217,,,A*4C
$GYRO,171220,173051.900,-0.625,2.000,0.688
$ACCEL,171220,173051.900,1.290,1.610,13.970
$LINEAR,171220,173051.900,0.250,1.120,4.230
$EULER,171220,173051.900,346.438,6.062,-2.875
$GPRMC,173052.000,A,3942.4073,N,10515.1856,W,24.11,6.95,201217,,,A*43
$GYRO,171220,173052.000,2.500,2.625,0.688
$ACCEL,171220,173052.000,1.090,0.810,10.380
$LINEAR,171220,173052.000,0.040,0.320,0.640
$EULER,171220,173052.000,346.438,6.125,-2.812
$GPRMC,173052.100,A,3942.4080,N,10515.1854,W,24.17,7.14,201217,,,A*42
$GYRO,171220,173052.100,0.750,0.188,0.562
$ACCEL,171220,173052.100,0.930,1.310,10.170
$LINEAR,171220,173052.100,-0.090,0.800,0.430
$EULER,171220,173052.100,346.375,6.000,-2.938
$GPRMC,173052.200,A,3942.4087,N,10515.1852,W,24.34,7.32,201217,,,A*45
$GYRO,171220,173052.200,1.375,1.062,0.500
$ACCEL,171220,173052.200,1.140,1.310,8.740
$LINEAR,171220,173052.200,0.120,0.810,-0.990
$EULER,171220,173052.200,346.312,5.938,-2.938
$GPRMC,173052.300,A,3942.4095,N,10515.1850,W,24.39,7.49,201217,,,A*44
$GYRO,171220,173052.300,-0.688,1.188,0.625
$ACCEL,171220,173052.300,1.000,1.000,9.890
$LINEAR,171220,173052.300,-0.020,0.480,0.150
$EULER,171220,173052.300,346.250,6.000,-3.062
$GPRMC,173052.400,A,3942.4102,N,10515.1848,W,24.55,7.56,201217,,,A*41
$GYRO,171220,173052.400,-0.312,-3.438,0.562
$ACCEL,171220,173052.400,1.640,1.630,8.410
$LINEAR,171220,173052.400,0.620,1.100,-1.320
$EULER,171220,173052.400,346.250,5.938,-3.062
$GPRMC,173052.500,A,3942.4110,N,10515.1846,W,24.62,7.71,201217,,,A*4C
$GYRO,171220,173052.500,-2.125,-4.562,0.000
$ACCEL,171220,173052.500,1.740,0.720,8.760
$LINEAR,171220,173052.500,0.730,0.170,-0.970
$EULER,171220,173052.500,346.250,5.875,-3.188
$GPRMC,173052.600,A,3942.4117,N,10515.1844,W,24.80,7.87,201217,,,A*4F
$GYRO,171220,173052.600,1.625,2.812,0.938
$ACCEL,171220,173052.600,1.560,1.110,8.670
$LINEAR,171220,173052.600,0.550,0.530,-1.050
$EULER,171220,173052.600,346.188,5.875,-3.375
$GPRMC,173052.700,A,3942.4125,N,10515.1842,W,24.86,8.02,201217,,,A*4D
$GYRO,171220,173052.700,-2.938,0.375,0.625
$ACCEL,171220,173052.700,1.540,0.890,8.850
$LINEAR,171220,173052.700,0.520,0.300,-0.880
$EULER,171220,173052.700,346.188,5.938,-3.438
$GPRMC,173052.800,A,3942.4132,N,10515.1839,W,25.04,8.18,201217,,,A*48
$GYRO,171220,173052.800,0.625,0.500,0.062
$ACCEL,171220,173052.800,1.260,0.840,10.530
$LINEAR,171220,173052.800,0.100,0.080,-1.070
$EULER,171220,173052.800,346.188,5.875,-3.500
$GPRMC,173052.900,A,3942.4140,N,10515.1837,W,25.25,8.31,201217,,,A*4A
$GYRO,171220,173052.900,1.750,2.562,0.312
$ACCEL,171220,173052.900,1.450,0.760,11.290
$LINEAR,171220,173052.900,0.250,0.340,1.500
$EULER,171220,173052.900,346.188,5.750,-3.562
$GPRMC,173053.000,A,3942.4148,N,10515.1835,W,25.44,8.39,201217,,,A*47
$GYRO,171220,173053.000,-1.688,-5.688,0.250
$ACCEL,171220,173053.000,1.860,1.250,10.690
$LINEAR,171220,173053.000,0.860,0.650,0.960
$EULER,171220,173053.000,346.125,5.812,-3.500
$GPRMC,173053.100,A,3942.4155,N,10515.1833,W,25.47,8.53,201217,,,A*43
$GYRO,171220,173053.100,0.375,-0.500,0.500
$ACCEL,171220,173053.100,1.690,0.640,9.880
$LINEAR,171220,173053.100,0.690,0.040,0.140
$EULER,171220,173053.100,346.125,5.812,-3.500
$GPRMC,173053.200,A,3942.4163,N,10515.1831,W,25.63,8.65,201217,,,A*44
$GYRO,171220,173053.200,-0.438,-1.312,0.312
$ACCEL,171220,173053.200,1.070,1.350,11.180
$LINEAR,171220,173053.200,0.050,0.730,1.440
$EULER,171220,173053.200,346.125,5.938,-3.562
$GPRMC,173053.300,A,3942.4170,N,10515.1829,W,25.85,8.78,201217,,,A*4A
$GYRO,171220,173053.300,0.625,-1.250,0.500
$ACCEL,171220,173053.300,1.460,1.210,10.520
$LINEAR,171220,173053.300,0.700,0.010,1.840
$EULER,171220,173053.300,346.125,6.000,-3.562
$GPRMC,173053.400,A,3942.4178,N,10515.1826,W,26.08,8.87,201217,,,A*4C
$GYRO,171220,173053.400,0.188,-2.188,0.625
$ACCEL,171220,173053.400,1.400,0.960,8.830
$LINEAR,171220,173053.400,0.360,0.340,-0.900
$EULER,171220,173053.400,346.125,6.062,-3.625
$GPRMC,173053.500,A,3942.4186,N,10515.1824,W,26.36,8.90,201217,,,A*45
$GYRO,171220,173053.500,-1.688,-0.625,0.250
$ACCEL,171220,173053.500,1.100,0.730,11.070
$LINEAR,171220,173053.500,0.040,0.090,1.340
$EULER,171220,173053.500,346.125,6.125,-3.750
$GPRMC,173053.600,A,3942.4194,N,10515.1822,W,26.56,9.05,201217,,,A*48
$GYRO,171220,173053.600,-0.062,0.312,0.688
$ACCEL,171220,173053.600,0.890,1.330,11.610
$LINEAR,171220,173053.600,-0.160,0.690,1.890
$EULER,171220,173053.600,346.062,6.250,-3.688
$GPRMC,173053.700,A,3942.4203,N,10515.1819,W,26.85,9.26,201217,,,A*43
$GYRO,171220,173053.700,-0.688,0.500,0.562
$ACCEL,171220,173053.700,0.810,0.950,11.430
$LINEAR,171220,173053.700,-0.280,0.320,1.710
$EULER,171220,173053.700,346.062,6.438,-3.625
$GPRMC,173053.800,A,3942.4211,N,10515.1817,W,27.09,9.36,201217,,,A*45
$GYRO,171220,173053.800,-1.188,-2.562,0.250
$ACCEL,171220,173053.800,1.690,1.020,9.460
$LINEAR,171220,173053.800,0.590,0.420,-0.250
$EULER,171220,173053.800,346.125,6.438,-3.500
$GPRMC,173053.900,A,3942.4219,N,10515.1815,W,27.31,9.45,201217,,,A*41
$GYRO,171220,173053.900,-4.188,-5.938,0.125
$ACCEL,171220,173053.900,1.540,1.680,8.130
$LINEAR,171220,173053.900,0.430,1.130,-1.590
$EULER,171220,173053.900,346.062,6.500,-3.188
$GPRMC,173054.000,A,3942.4227,N,10515.1813,W,27.52,9.53,201217,,,A*46
$GYRO,171220,173054.000,-1.375,2.250,0.500
$ACCEL,171220,173054.000,0.800,0.580,10.650
$LINEAR,171220,173054.000,-0.320,0.040,0.920
$EULER,171220,173054.000,346.062,6.625,-3.125
$GPRMC,173054.100,A,3942.4235,N,10515.1810,W,27.53,9.56,201217,,,A*43
$GYRO,171220,173054.100,-0.375,-1.438,0.500
$ACCEL,171220,173054.100,1.540,0.700,9.360
$LINEAR,171220,173054.100,0.420,0.190,-0.360
$EULER,171220,173054.100,346.062,6.562,-2.938
$GPRMC,173054.200,A,3942.4244,N,10515.1808,W,27.57,9.60,201217,,,A*4E
$GYRO,171220,173054.200,-2.625,-2.750,0.562
$ACCEL,171220,173054.200,1.450,0.780,8.530
$LINEAR,171220,173054.200,0.320,0.290,-1.180
$EULER,171220,173054.200,346.000,6.625,-2.875
$GPRMC,173054.300,A,3942.4251,N,10515.1806,W,27.62,9.63,201217,,,A*40
$GYRO,171220,173054.300,0.250,3.812,0.875
$ACCEL,171220,173054.300,0.620,0.670,10.040
$LINEAR,171220,173054.300,-0.500,0.180,0.310
$EULER,171220,173054.300,345.938,6.562,-2.812
$GPRMC,173054.400,A,3942.4259,N,10515.1804,W,27.67,9.70,201217,,,A*4A
$GYRO,171220,173054.400,-0.688,-4.062,0.562
$ACCEL,171220,173054.400,0.920,1.330,6.860
$LINEAR,171220,173054.400,-0.220,0.850,-2.860
$EULER,171220,173054.400,345.938,6.688,-2.812
$GPRMC,173054.500,A,3942.4267,N,10515.1801,W,27.70,9.75,201217,,,A*40
$GYRO,171220,173054.500,-1.438,-4.750,0.438
$ACCEL,171220,173054.500,1.360,0.270,8.440
$LINEAR,171220,173054.500,0.200,-0.200,-1.270
$EULER,171220,173054.500,345.875,6.750,-2.812
$GPRMC,173054.600,A,3942.4276,N,10515.1798,W,27.74,9.83,201217,,,A*41
$GYRO,171220,173054.600,-1.625,2.000,0.250
$ACCEL,171220,173054.600,0.980,0.000,14.650
$LINEAR,171220,173054.600,-0.180,-0.480,4.930
$EULER,171220,173054.600,345.812,6.875,-2.875
$GPRMC,173054.700,A,3942.4284,N,10515.1796,W,27.77,9.80,201217,,,A*43
$GYRO,171220,173054.700,3.688,4.562,1.000
$ACCEL,171220,173054.700,0.850,1.390,10.610
$LINEAR,171220,173054.700,-0.310,0.910,0.890
$EULER,171220,173054.700,345.750,6.812,-2.812
$GPRMC,173054.800,A,3942.4292,N,10515.1794,W,27.77,9.74,201217,,,A*42
$GYRO,171220,173054.800,-1.625,0.250,0.750
$ACCEL,171220,173054.800,1.680,1.040,9.520
$LINEAR,171220,173054.800,0.500,0.590,-0.190
$EULER,171220,173054.800,345.688,6.875,-2.625
$GPRMC,173054.900,A,3942.4300,N,10515.1792,W,27.77,9.73,201217,,,A*48
$GYRO,171220,173054.900,1.000,1.312,0.688
$ACCEL,171220,173054.900,1.260,0.750,9.670
$LINEAR,171220,173054.900,0.090,0.300,-0.040
$EULER,171220,173054.900,345.688,6.812,-2.625
$GPRMC,173055.000,A,3942.4307,N,10515.1789,W,27.77,9.82,201217,,,A*43
$GYRO,171220,173055.000,-1.562,-0.938,0.625
$ACCEL,171220,173055.000,1.520,0.820,10.230
$LINEAR,171220,173055.000,0.350,0.380,0.510
$EULER,171220,173055.000,345.625,6.875,-2.562
$GPRMC,173055.100,A,3942.4316,N,10515.1786,W,27.78,9.95,201217,,,A*44
$GYRO,171220,173055.100,1.062,-3.750,0.562
$ACCEL,171220,173055.100,0.930,0.630,11.780
$LINEAR,171220,173055.100,-0.250,0.170,2.060
$EULER,171220,173055.100,345.562,6.938,-2.688
$GPRMC,173055.200,A,3942.4324,N,10515.1782,W,27.78,10.10,201217,,,A*77
$GYRO,171220,173055.200,0.375,0.688,0.625
$ACCEL,171220,173055.200,1.210,1.200,8.620
$LINEAR,171220,173055.200,0.020,0.740,-1.100
$EULER,171220,173055.200,345.500,6.938,-2.688
$GPRMC,173055.300,A,3942.4332,N,10515.1779,W,27.80,10.20,201217,,,A*71
$GYRO,171220,173055.300,-0.125,-3.375,1.188
$ACCEL,171220,173055.300,1.620,0.380,9.590
$LINEAR,171220,173055.300,0.420,-0.100,-0.120
$EULER,171220,173055.300,345.438,7.000,-2.875
$GPRMC,173055.400,A,3942.4341,N,10515.1776,W,27.83,10.25,201217,,,A*7B
$GYRO,171220,173055.400,-2.375,-3.500,0.500
$ACCEL,171220,173055.400,1.770,0.680,8.680
$LINEAR,171220,173055.400,0.570,0.180,-1.030
$EULER,171220,173055.400,345.375,7.000,-2.875
$GPRMC,173055.500,A,3942.4349,N,10515.1773,W,27.88,10.29,201217,,,A*70
$GYRO,171220,173055.500,-2.000,4.562,0.562
$ACCEL,171220,173055.500,0.590,1.750,8.460
$LINEAR,171220,173055.500,-0.600,1.230,-1.250
$EULER,171220,173055.500,345.312,7.000,-3.000
$GPRMC,173055.600,A,3942.4358,N,10515.1770,W,27.93,10.34,201217,,,A*76
$GYRO,171220,173055.600,2.688,-2.188,0.625
$ACCEL,171220,173055.600,1.550,0.860,11.540
$LINEAR,171220,173055.600,0.130,0.690,3.090
$EULER,171220,173055.600,345.188,7.125,-3.188
$GPRMC,173055.700,A,3942.4366,N,10515.1767,W,27.99,10.39,201217,,,A*7B
$GYRO,171220,173055.700,1.750,-2.938,1.000
$ACCEL,171220,173055.700,1.150,1.150,7.710
$LINEAR,171220,173055.700,0.220,0.720,-0.210
$EULER,171220,173055.700,345.125,7.188,-3.188
$GPRMC,173055.800,A,3942.4375,N,10515.1764,W,28.17,10.48,201217,,,A*7A
$GYRO,171220,173055.800,1.312,-3.500,0.625
$ACCEL,171220,173055.800,1.660,0.580,7.270
$LINEAR,171220,173055.800,0.620,-0.180,-0.280
$EULER,171220,173055.800,345.062,7.250,-3.375
$GPRMC,173055.900,A,3942.4383,N,10515.1761,W,28.20,10.57,201217,,,A*7D
$GYRO,171220,173055.900,-2.250,-1.625,1.000
$ACCEL,171220,173055.900,1.330,1.400,10.230
$LINEAR,171220,173055.900,-0.430,0.990,0.620
$EULER,171220,173055.900,345.000,7.250,-3.438
$GPRMC,173056.000,A,3942.4391,N,10515.1758,W,28.24,10.68,201217,,,A*76
$GYRO,171220,173056.000,2.938,7.938,0.875
$ACCEL,171220,173056.000,1.270,0.550,10.290
$LINEAR,171220,173056.000,0.260,-0.010,0.690
$EULER,171220,173056.000,344.938,6.938,-3.562
$GPRMC,173056.100,A,3942.4399,N,10515.1755,W,28.27,10.76,201217,,,A*7E
$GYRO,171220,173056.100,1.000,-0.750,0.312
$ACCEL,171220,173056.100,1.460,1.070,9.880
$LINEAR,171220,173056.100,-0.040,0.330,0.670
$EULER,171220,173056.100,344.875,6.875,-3.562
$GPRMC,173056.200,A,3942.4407,N,10515.1752,W,28.32,10.79,201217,,,A*71
$GYRO,171220,173056.200,2.812,5.062,0.688
$ACCEL,171220,173056.200,1.180,1.260,9.770
$LINEAR,171220,173056.200,0.030,0.640,0.060
$EULER,171220,173056.200,344.812,6.750,-3.625
$GPRMC,173056.300,A,3942.4416,N,10515.1750,W,28.37,10.81,201217,,,A*70
$GYRO,171220,173056.300,1.625,1.062,0.875
$ACCEL,171220,173056.300,1.400,1.270,10.100
$LINEAR,171220,173056.300,0.300,0.300,0.410
$EULER,171220,173056.300,344.812,6.625,-3.750
$GPRMC,173056.400,A,3942.4424,N,10515.1747,W,28.41,10.83,201217,,,A*73
$GYRO,171220,173056.400,-0.500,-1.438,0.500
$ACCEL,171220,173056.400,0.410,1.030,10.180
$LINEAR,171220,173056.400,-1.070,0.490,0.760
$EULER,171220,173056.400,344.750,6.688,-3.812
$GPRMC,173056.500,A,3942.4432,N,10515.1745,W,28.47,10.85,201217,,,A*77
$GYRO,171220,173056.500,1.312,1.062,0.562
$ACCEL,171220,173056.500,0.400,0.730,10.080
$LINEAR,171220,173056.500,-0.720,0.070,0.360
$EULER,171220,173056.500,344.750,6.625,-3.875
$GPRMC,173056.600,A,3942.4441,N,10515.1742,W,28.52,10.86,201217,,,A*70
$GYRO,171220,173056.600,1.312,0.938,0.625
$ACCEL,171220,173056.600,-0.020,0.670,11.120
$LINEAR,171220,173056.600,-1.160,0.000,1.400
$EULER,171220,173056.600,344.688,6.625,-3.938
$GPRMC,173056.700,A,3942.4449,N,10515.1740,W,28.56,10.88,201217,,,A*71
$GYRO,171220,173056.700,-1.000,2.375,0.438
$ACCEL,171220,173056.700,-0.120,0.920,8.720
$LINEAR,171220,173056.700,-1.250,0.250,-0.990
$EULER,171220,173056.700,344.688,6.625,-3.875
$GPRMC,173056.800,A,3942.4457,N,10515.1737,W,28.60,10.94,201217,,,A*79
$GYRO,171220,173056.800,0.375,-1.875,0.062
$ACCEL,171220,173056.800,-0.320,0.210,10.540
$LINEAR,171220,173056.800,-1.480,-0.430,0.820
$EULER,171220,173056.800,344.688,6.750,-3.812
$GPRMC,173056.900,A,3942.4465,N,10515.1734,W,28.63,10.97,201217,,,A*7A
$GYRO,171220,173056.900,-1.438,-0.375,0.375
$ACCEL,171220,173056.900,-0.340,0.830,9.680
$LINEAR,171220,173056.900,-1.510,0.180,-0.030
$EULER,171220,173056.900,344.688,6.812,-3.812
$GPRMC,173057.000,A,3942.4474,N,10515.1732,W,28.64,10.97,201217,,,A*73
$GYRO,171220,173057.000,-0.812,0.375,0.562
$ACCEL,171220,173057.000,-0.590,1.120,9.030
$LINEAR,171220,173057.000,-1.740,0.490,-0.680
$EULER,171220,173057.000,344.688,6.750,-3.688
$GPRMC,173057.100,A,3942.4482,N,10515.1729,W,28.65,10.99,201217,,,A*7E
$GYRO,171220,173057.100,-2.188,-1.750,-0.062
$ACCEL,171220,173057.100,-0.140,0.710,8.390
$LINEAR,171220,173057.100,-1.280,0.100,-1.320
$EULER,171220,173057.100,344.688,6.688,-3.562
$GPRMC,173057.200,A,3942.4490,N,10515.1726,W,28.65,11.02,201217,,,A*72
$GYRO,171220,173057.200,2.688,7.438,0.750
$ACCEL,171220,173057.200,0.270,1.030,11.290
$LINEAR,171220,173057.200,-0.860,0.440,1.570
$EULER,171220,173057.200,344.625,6.625,-3.438
$GPRMC,173057.300,A,3942.4499,N,10515.1724,W,28.65,11.05,201217,,,A*7F
$GYRO,171220,173057.300,0.750,-0.438,0.750
$ACCEL,171220,173057.300,1.250,1.330,6.970
$LINEAR,171220,173057.300,0.100,0.750,-2.740
$EULER,171220,173057.300,344.625,6.688,-3.375
$GPRMC,173057.400,A,3942.4507,N,10515.1721,W,28.63,11.04,201217,,,A*7C
$GYRO,171220,173057.400,-4.875,-2.812,0.750
$ACCEL,171220,173057.400,1.290,0.460,8.190
$LINEAR,171220,173057.400,0.170,-0.120,-1.520
$EULER,171220,173057.400,344.562,6.562,-3.438
$GPRMC,173057.500,A,3942.4515,N,10515.1718,W,28.63,11.11,201217,,,A*70
$GYRO,171220,173057.500,2.875,2.625,0.312
$ACCEL,171220,173057.500,0.320,1.200,9.020
$LINEAR,171220,173057.500,-0.790,0.600,-0.700
$EULER,171220,173057.500,344.500,6.562,-3.500
$GPRMC,173057.600,A,3942.4524,N,10515.1714,W,28.62,11.20,201217,,,A*7E
$GYRO,171220,173057.600,0.500,0.312,0.875
$ACCEL,171220,173057.600,1.140,0.610,8.770
$LINEAR,171220,173057.600,0.040,0.000,-0.950
$EULER,171220,173057.600,344.438,6.438,-3.625
$GPRMC,173057.700,A,3942.4532,N,10515.1711,W,28.61,11.25,201217,,,A*7B
$GYRO,171220,173057.700,1.062,-1.562,0.625
$ACCEL,171220,173057.700,1.000,0.170,8.880
$LINEAR,171220,173057.700,-0.110,-0.460,-0.830
$EULER,171220,173057.700,344.375,6.500,-3.750
$GPRMC,173057.800,A,3942.4541,N,10515.1708,W,28.60,11.31,201217,,,A*7C
$GYRO,171220,173057.800,-0.562,1.562,0.562
$ACCEL,171220,173057.800,1.050,1.070,8.590
$LINEAR,171220,173057.800,-0.050,0.440,-1.130
$EULER,171220,173057.800,344.375,6.438,-3.750
$GPRMC,173057.900,A,3942.4549,N,10515.1705,W,28.59,11.31,201217,,,A*72
$GYRO,171220,173057.900,-0.188,0.375,0.750
$ACCEL,171220,173057.900,1.020,0.910,10.240
$LINEAR,171220,173057.900,-0.060,0.270,0.520
$EULER,171220,173057.900,344.312,6.375,-3.688
$GPRMC,173058.000,A,3942.4557,N,10515.1702,W,28.56,11.30,201217,,,A*72
$GYRO,171220,173058.000,2.062,2.250,0.750
$ACCEL,171220,173058.000,1.010,0.970,9.580
$LINEAR,171220,173058.000,-0.070,0.350,-0.130
$EULER,171220,173058.000,344.250,6.312,-3.688
$GPRMC,173058.100,A,3942.4565,N,10515.1699,W,28.52,11.36,201217,,,A*73
$GYRO,171220,173058.100,0.500,-2.750,0.375
$ACCEL,171220,173058.100,0.730,0.620,10.460
$LINEAR,171220,173058.100,-0.350,0.000,0.740
$EULER,171220,173058.100,344.188,6.312,-3.750
$GPRMC,173058.200,A,3942.4574,N,10515.1696,W,28.48,11.44,201217,,,A*71
$GYRO,171220,173058.200,-0.188,-0.750,0.750
$ACCEL,171220,173058.200,1.180,1.410,9.530
$LINEAR,171220,173058.200,0.080,0.760,-0.180
$EULER,171220,173058.200,344.125,6.375,-3.812
$GPRMC,173058.300,A,3942.4582,N,10515.1693,W,28.44,11.48,201217,,,A*7C
$GYRO,171220,173058.300,1.625,-0.375,0.938
$ACCEL,171220,173058.300,1.180,0.600,9.910
$LINEAR,171220,173058.300,0.110,-0.070,0.190
$EULER,171220,173058.300,344.000,6.312,-4.000
$GPRMC,173058.400,A,3942.4590,N,10515.1690,W,28.40,11.47,201217,,,A*70
$GYRO,171220,173058.400,0.375,-1.250,0.438
$ACCEL,171220,173058.400,1.580,0.910,9.820
$LINEAR,171220,173058.400,0.480,0.210,0.100
$EULER,171220,173058.400,343.938,6.375,-4.125
$GPRMC,173058.500,A,3942.4598,N,10515.1686,W,28.36,11.36,201217,,,A*79
$GYRO,171220,173058.500,5.125,5.000,0.812
$ACCEL,171220,173058.500,1.040,0.610,8.940
$LINEAR,171220,173058.500,-0.010,-2.050,0.120
$EULER,171220,173058.500,343.875,6.312,-4.250
$GPRMC,173058.600,A,3942.4607,N,10515.1684,W,28.31,11.28,201217,,,A*75
$GYRO,171220,173058.600,-0.625,-6.188,0.625
$ACCEL,171220,173058.600,1.100,1.370,6.380
$LINEAR,171220,173058.600,0.670,0.810,-2.570
$EULER,171220,173058.600,343.812,6.312,-4.438
$GPRMC,173058.700,A,3942.4615,N,10515.1681,W,28.28,11.21,201217,,,A*73
$GYRO,171220,173058.700,0.188,0.500,0.812
$ACCEL,171220,173058.700,1.020,0.830,11.460
$LINEAR,171220,173058.700,-0.300,1.120,0.820
$EULER,171220,173058.700,343.750,6.250,-4.625
$GPRMC,173058.800,A,3942.4623,N,10515.1678,W,28.26,11.17,201217,,,A*74
$GYRO,171220,173058.800,1.000,-0.375,0.688
$ACCEL,171220,173058.800,1.380,1.750,7.660
$LINEAR,171220,173058.800,0.520,0.390,0.360
$EULER,171220,173058.800,343.688,6.250,-4.688
$GPRMC,173058.900,A,3942.4631,N,10515.1676,W,28.27,11.16,201217,,,A*78
$GYRO,171220,173058.900,1.938,0.062,1.000
$ACCEL,171220,173058.900,0.700,1.520,8.580
$LINEAR,171220,173058.900,0.210,0.240,-0.410
$EULER,171220,173058.900,343.625,6.250,-4.750
$GPRMC,173059.000,A,3942.4639,N,10515.1673,W,28.30,11.10,201217,,,A*7D
$GYRO,171220,173059.000,0.375,-0.938,0.438
$ACCEL,171220,173059.000,0.450,1.210,8.120
$LINEAR,171220,173059.000,0.160,0.000,-2.190
$EULER,171220,173059.000,343.625,6.312,-4.812
$GPRMC,173059.100,A,3942.4647,N,10515.1671,W,28.35,10.97,201217,,,A*7C
$GYRO,171220,173059.100,-0.875,-2.812,0.750
$ACCEL,171220,173059.100,0.960,1.170,9.860
$LINEAR,171220,173059.100,-0.120,0.330,0.150
$EULER,171220,173059.100,343.562,6.375,-4.875
$GPRMC,173059.200,A,3942.4655,N,10515.1668,W,28.40,10.92,201217,,,A*73
$GYRO,171220,173059.200,2.250,1.625,1.000
$ACCEL,171220,173059.200,0.850,0.290,10.390
$LINEAR,171220,173059.200,-0.240,-0.540,0.680
$EULER,171220,173059.200,343.438,6.438,-4.938
$GPRMC,173059.300,A,3942.4664,N,10515.1666,W,28.46,10.85,201217,,,A*7E
$GYRO,171220,173059.300,-2.062,-6.062,0.438
$ACCEL,171220,173059.300,1.740,1.290,7.660
$LINEAR,171220,173059.300,0.610,0.450,-2.030
$EULER,171220,173059.300,343.438,6.562,-4.875
$GPRMC,173059.400,A,3942.4672,N,10515.1664,W,28.51,10.77,201217,,,A*77
$GYRO,171220,173059.400,-2.062,1.312,0.438
$ACCEL,171220,173059.400,0.970,1.610,9.370
$LINEAR,171220,173059.400,-0.130,0.800,-0.330
$EULER,171220,173059.400,343.438,6.562,-4.750
$GPRMC,173059.500,A,3942.4680,N,10515.1661,W,28.56,10.68,201217,,,A*77
