$GPRMC,173718.000,A,3943.6535,N,10514.5585,W,0.00,322.01,201217,,,A*76
$GYRO,171220,173718.000,0.000,0.188,0.000
$ACCEL,171220,173718.000,0.590,1.220,9.720
$LINEAR,171220,173718.000,0.190,0.000,0.000
$EULER,171220,173718.000,276.188,2.250,-7.188
$GPRMC,173718.100,A,3943.6536,N,10514.5585,W,0.00,322.01,201217,,,A*74
$GYRO,171220,173718.100,0.062,0.250,0.000
$ACCEL,171220,173718.100,0.580,1.240,9.700
$LINEAR,171220,173718.100,0.180,0.010,-0.010
$EULER,171220,173718.100,276.188,2.312,-7.188
$GPRMC,173718.200,A,3943.6539,N,10514.5585,W,0.00,322.01,201217,,,A*78
$GYRO,171220,173718.200,0.000,0.062,0.000
$ACCEL,171220,173718.200,0.620,1.280,9.740
$LINEAR,171220,173718.200,0.210,0.040,0.020
$EULER,171220,173718.200,276.188,2.375,-7.188
$GPRMC,173718.300,A,3943.6539,N,10514.5585,W,0.00,322.01,201217,,,A*79
$GYRO,171220,173718.300,0.000,0.062,0.000
$ACCEL,171220,173718.300,0.590,1.250,9.720
$LINEAR,171220,173718.300,0.170,0.010,0.000
$EULER,171220,173718.300,276.188,2.438,-7.188
$GPRMC,173718.400,A,3943.6539,N,10514.5585,W,0.00,322.01,201217,,,A*7E
$GYRO,171220,173718.400,0.062,-0.062,0.000
$ACCEL,171220,173718.400,0.650,1.220,9.720
$LINEAR,171220,173718.400,0.220,0.000,0.000
$EULER,171220,173718.400,276.188,2.500,-7.250
$GPRMC,173718.500,A,3943.6539,N,10514.5585,W,0.00,322.01,201217,,,A*7F
$GYRO,171220,173718.500,-0.438,0.562,-0.125
$ACCEL,171220,173718.500,0.020,1.190,9.530
$LINEAR,171220,173718.500,-0.210,0.010,-0.270
$EULER,171220,173718.500,276.188,2.500,-7.250
$GPRMC,173718.600,A,3943.6539,N,10514.5585,W,0.00,322.01,201217,,,A*7C
$GYRO,171220,173718.600,0.125,-0.438,0.125
$ACCEL,171220,173718.600,0.090,1.160,10.070
$LINEAR,171220,173718.600,-0.300,-0.060,0.350
$EULER,171220,173718.600,276.188,2.312,-7.188
$GPRMC,173718.700,A,3943.6539,N,10514.5585,W,0.00,322.01,201217,,,A*7D
$GYRO,171220,173718.700,0.062,-0.250,0.125
$ACCEL,171220,173718.700,0.090,1.120,9.570
$LINEAR,171220,173718.700,-0.260,-0.090,-0.140
$EULER,171220,173718.700,276.188,2.062,-7.125
$GPRMC,173718.800,A,3943.6539,N,10514.5585,W,0.00,322.01,201217,,,A*72
$GYRO,171220,173718.800,-0.250,0.438,0.125
$ACCEL,171220,173718.800,0.050,1.060,10.000
$LINEAR,171220,173718.800,-0.270,-0.140,0.280
$EULER,171220,173718.800,276.188,1.875,-7.062
$GPRMC,173718.900,A,3943.6539,N,10514.5585,W,0.00,322.01,201217,,,A*73
$GYRO,171220,173718.900,0.312,0.000,0.125
$ACCEL,171220,173718.900,0.040,1.210,9.580
$LINEAR,171220,173718.900,-0.250,0.000,-0.140
$EULER,171220,173718.900,276.250,1.750,-7.062
$GPRMC,173719.000,A,3943.6539,N,10514.5585,W,0.00,322.01,201217,,,A*7B
$GYRO,171220,173719.000,-1.312,0.375,0.188
$ACCEL,171220,173719.000,0.260,1.090,10.010
$LINEAR,171220,173719.000,-0.020,-0.110,0.280
$EULER,171220,173719.000,276.250,1.688,-7.062
$GPRMC,173719.100,A,3943.6539,N,10514.5585,W,0.00,322.01,201217,,,A*7A
$GYRO,171220,173719.100,-0.188,0.125,0.250
$ACCEL,171220,173719.100,0.500,1.240,9.640
$LINEAR,171220,173719.100,0.190,0.030,-0.070
$EULER,171220,173719.100,276.250,1.750,-7.062
$GPRMC,173719.200,A,3943.6539,N,10514.5585,W,0.00,322.01,201217,,,A*79
$GYRO,171220,173719.200,-0.375,0.000,-0.062
$ACCEL,171220,173719.200,0.910,1.180,9.840
$LINEAR,171220,173719.200,0.600,-0.020,0.120
$EULER,171220,173719.200,276.188,1.750,-7.062
$GPRMC,173719.300,A,3943.6539,N,10514.5585,W,0.00,322.01,201217,,,A*78
$GYRO,171220,173719.300,1.125,-0.688,0.188
$ACCEL,171220,173719.300,2.500,1.760,9.970
$LINEAR,171220,173719.300,2.120,0.540,0.250
$EULER,171220,173719.300,276.188,2.188,-7.125
$GPRMC,173719.400,A,3943.6539,N,10514.5585,W,0.00,322.01,201217,,,A*7F
$GYRO,171220,173719.400,0.125,-0.938,0.000
$ACCEL,171220,173719.400,2.630,1.520,9.380
$LINEAR,171220,173719.400,2.220,0.300,-0.330
$EULER,171220,173719.400,276.188,2.312,-7.125
$GPRMC,173719.500,A,3943.6539,N,10514.5585,W,0.00,322.01,201217,,,A*7E
$GYRO,171220,173719.500,-0.250,-0.812,0.312
$ACCEL,171220,173719.500,2.690,2.090,9.580
$LINEAR,171220,173719.500,1.940,0.790,-0.100
$EULER,171220,173719.500,276.125,4.375,-7.562
$GPRMC,173719.600,A,3943.6539,N,10514.5585,W,0.00,322.01,201217,,,A*7D
$GYRO,171220,173719.600,0.688,-1.125,0.375
$ACCEL,171220,173719.600,3.140,1.950,9.240
$LINEAR,171220,173719.600,1.820,0.520,-0.360
$EULER,171220,173719.600,275.938,7.750,-8.438
$GPRMC,173719.700,A,3943.6539,N,10514.5585,W,0.00,322.01,201217,,,A*7C
$GYRO,171220,173719.700,0.500,-0.438,0.250
$ACCEL,171220,173719.700,3.120,2.280,9.870
$LINEAR,171220,173719.700,1.590,0.800,0.300
$EULER,171220,173719.700,275.875,8.938,-8.750
$GPRMC,173719.800,A,3943.6539,N,10514.5585,W,0.00,322.01,201217,,,A*73
$GYRO,171220,173719.800,0.750,-1.125,0.688
$ACCEL,171220,173719.800,3.520,1.970,9.640
$LINEAR,171220,173719.800,1.840,0.450,0.100
$EULER,171220,173719.800,275.812,9.875,-9.000
$GPRMC,173719.900,A,3943.6539,N,10514.5585,W,0.00,322.01,201217,,,A*72
$GYRO,171220,173719.900,0.750,-0.875,0.625
$ACCEL,171220,173719.900,3.060,2.350,10.350
$LINEAR,171220,173719.900,1.320,0.820,0.820
$EULER,171220,173719.900,275.750,10.188,-9.062
$GPRMC,173720.000,A,3943.6539,N,10514.5585,W,0.00,322.01,201217,,,A*71
$GYRO,171220,173720.000,0.375,-2.062,1.000
$ACCEL,171220,173720.000,3.300,1.510,9.420
$LINEAR,171220,173720.000,1.310,-0.040,-0.040
$EULER,171220,173720.000,275.562,11.688,-9.375
$GPRMC,173720.100,A,3943.6539,N,10514.5585,W,0.00,322.01,201217,,,A*70
$GYRO,171220,173720.100,-1.062,-1.250,0.312
$ACCEL,171220,173720.100,3.350,1.480,9.270
$LINEAR,171220,173720.100,1.230,-0.100,-0.160
$EULER,171220,173720.100,275.500,12.500,-9.562
$GPRMC,173720.200,A,3943.6539,N,10514.5585,W,0.00,322.01,201217,,,A*73
$GYRO,171220,173720.200,-0.125,-1.750,0.500
$ACCEL,171220,173720.200,3.370,1.290,9.820
$LINEAR,171220,173720.200,1.200,-0.310,0.400
$EULER,171220,173720.200,275.500,12.812,-9.625
$GPRMC,173720.300,A,3943.6539,N,10514.5585,W,0.00,322.01,201217,,,A*72
$GYRO,171220,173720.300,0.375,-1.000,0.188
$ACCEL,171220,173720.300,3.200,2.600,10.170
$LINEAR,171220,173720.300,0.990,0.990,0.750
$EULER,171220,173720.300,275.500,12.938,-9.688
$GPRMC,173720.400,A,3943.6539,N,10514.5585,W,0.00,322.01,201217,,,A*75
$GYRO,171220,173720.400,-3.250,-2.000,-0.688
$ACCEL,171220,173720.400,3.800,1.850,8.480
$LINEAR,171220,173720.400,1.570,0.240,-0.930
$EULER,171220,173720.400,275.500,13.062,-9.625
$GPRMC,173720.500,A,3943.6539,N,10514.5585,W,0.00,322.01,201217,,,A*74
$GYRO,171220,173720.500,1.438,1.500,-0.688
$ACCEL,171220,173720.500,1.650,0.770,8.860
$LINEAR,171220,173720.500,-0.590,-0.820,-0.540
$EULER,171220,173720.500,275.562,13.250,-9.562
$GPRMC,173720.600,A,3943.6539,N,10514.5585,W,0.00,322.01,201217,,,A*77
$GYRO,171220,173720.600,2.562,1.750,-1.688
$ACCEL,171220,173720.600,2.500,1.060,9.310
$LINEAR,171220,173720.600,0.260,-0.540,-0.090
$EULER,171220,173720.600,275.688,13.125,-9.688
$GPRMC,173720.700,A,3943.6539,N,10514.5585,W,0.00,322.01,201217,,,A*76
$GYRO,171220,173720.700,-1.000,-0.375,-2.500
$ACCEL,171220,173720.700,3.070,1.540,10.230
$LINEAR,171220,173720.700,0.840,-0.060,0.810
$EULER,171220,173720.700,275.938,13.062,-9.688
$GPRMC,173720.800,A,3943.6539,N,10514.5585,W,0.00,322.01,201217,,,A*79
$GYRO,171220,173720.800,-4.438,-0.875,-2.812
$ACCEL,171220,173720.800,2.040,1.760,9.450
$LINEAR,171220,173720.800,-0.170,0.170,0.030
$EULER,171220,173720.800,276.188,13.062,-9.562
$GPRMC,173720.900,A,3943.6539,N,10514.5585,W,0.00,322.01,201217,,,A*78
$GYRO,171220,173720.900,-6.062,-0.812,-3.625
$ACCEL,171220,173720.900,2.250,0.880,10.070
$LINEAR,171220,173720.900,0.030,-0.660,0.640
$EULER,171220,173720.900,276.562,13.062,-9.312
$GPRMC,173721.000,A,3943.6539,N,10514.5585,W,0.00,322.01,201217,,,A*70
$GYRO,171220,173721.000,-2.438,0.438,-3.750
$ACCEL,171220,173721.000,3.310,0.650,10.310
$LINEAR,171220,173721.000,1.100,-0.870,0.880
$EULER,171220,173721.000,276.938,13.000,-9.188
$GPRMC,173721.100,A,3943.6539,N,10514.5585,W,0.00,322.01,201217,,,A*71
$GYRO,171220,173721.100,-0.250,0.750,-5.000
$ACCEL,171220,173721.100,1.930,0.550,9.310
$LINEAR,171220,173721.100,-0.250,-0.960,-0.120
$EULER,171220,173721.100,277.375,12.812,-9.188
$GPRMC,173721.200,A,3943.6539,N,10514.5585,W,0.00,322.01,201217,,,A*72
$GYRO,171220,173721.200,-5.000,4.125,-5.562
$ACCEL,171220,173721.200,2.060,1.160,10.900
$LINEAR,171220,173721.200,0.050,-0.640,1.130
$EULER,171220,173721.200,277.938,12.500,-9.000
$GPRMC,173721.300,A,3943.6539,N,10514.5585,W,0.00,322.01,201217,,,A*73
$GYRO,171220,173721.300,-0.625,-3.000,-6.125
$ACCEL,171220,173721.300,2.670,0.110,8.560
$LINEAR,171220,173721.300,0.540,-1.370,-0.890
$EULER,171220,173721.300,278.500,12.500,-8.938
$GPRMC,173721.400,A,3943.6539,N,10514.5585,W,0.00,322.01,201217,,,A*74
$GYRO,171220,173721.400,-0.750,0.562,-8.125
$ACCEL,171220,173721.400,1.860,0.310,10.120
$LINEAR,171220,173721.400,-0.330,-1.020,0.080
$EULER,171220,173721.400,279.312,12.500,-9.000
$GPRMC,173721.500,A,3943.6539,N,10514.5585,W,0.00,322.01,201217,,,A*75
$GYRO,171220,173721.500,-4.562,1.125,-9.875
$ACCEL,171220,173721.500,2.140,0.430,9.950
$LINEAR,171220,173721.500,-0.020,-1.220,1.330
$EULER,171220,173721.500,280.250,12.375,-8.812
$GPRMC,173721.600,A,3943.6539,N,10514.5585,W,0.00,322.01,201217,,,A*76
$GYRO,171220,173721.600,-3.375,-0.375,-10.125
$ACCEL,171220,173721.600,2.310,-0.120,9.900
$LINEAR,171220,173721.600,-0.070,-1.260,0.670
$EULER,171220,173721.600,281.312,12.250,-8.625
$GPRMC,173721.700,A,3943.6539,N,10514.5585,W,0.00,322.01,201217,,,A*77
$GYRO,171220,173721.700,0.562,-1.000,-11.188
$ACCEL,171220,173721.700,2.280,0.420,9.480
$LINEAR,171220,173721.700,0.210,-1.020,0.010
$EULER,171220,173721.700,282.312,12.125,-8.500
$GPRMC,173721.800,A,3943.6539,N,10514.5585,W,0.00,322.01,201217,,,A*78
$GYRO,171220,173721.800,-1.938,-0.500,-12.375
$ACCEL,171220,173721.800,1.620,0.200,9.590
$LINEAR,171220,173721.800,-0.420,-1.150,0.100
$EULER,171220,173721.800,283.500,12.000,-8.125
$GPRMC,173721.900,A,3943.6539,N,10514.5585,W,0.00,322.01,201217,,,A*79
$GYRO,171220,173721.900,-1.875,0.750,-12.375
$ACCEL,171220,173721.900,1.920,0.010,9.660
$LINEAR,171220,173721.900,-0.080,-1.210,0.140
$EULER,171220,173721.900,284.625,11.812,-7.188
$GPRMC,173722.000,A,3943.6539,N,10514.5585,W,0.00,322.01,201217,,,A*73
$GYRO,171220,173722.000,-3.688,0.250,-12.562
$ACCEL,171220,173722.000,2.220,0.460,10.050
$LINEAR,171220,173722.000,0.200,-0.560,0.510
$EULER,171220,173722.000,285.750,11.875,-6.125
$GPRMC,173722.100,A,3943.6539,N,10514.5585,W,0.00,322.01,201217,,,A*72
$GYRO,171220,173722.100,-3.812,-0.875,-13.250
$ACCEL,171220,173722.100,2.010,0.190,8.600
$LINEAR,171220,173722.100,0.000,-0.820,-0.930
$EULER,171220,173722.100,286.938,11.812,-6.062
$GPRMC,173722.200,A,3943.6539,N,10514.5585,W,0.00,322.01,201217,,,A*71
$GYRO,171220,173722.200,-2.375,0.688,-13.312
$ACCEL,171220,173722.200,2.120,-0.250,10.000
$LINEAR,171220,173722.200,0.140,-1.280,0.450
$EULER,171220,173722.200,288.250,11.625,-6.125
$GPRMC,173722.300,A,3943.6539,N,10514.5585,W,0.00,322.01,201217,,,A*70
$GYRO,171220,173722.300,-4.438,-0.250,-14.438
$ACCEL,171220,173722.300,2.050,-0.180,9.370
$LINEAR,171220,173722.300,0.100,-1.170,-0.180
$EULER,171220,173722.300,289.625,11.438,-5.875
$GPRMC,173722.400,A,3943.6539,N,10514.5585,W,0.00,322.01,201217,,,A*77
$GYRO,171220,173722.400,-2.500,0.000,-15.000
$ACCEL,171220,173722.400,1.820,-0.730,9.870
$LINEAR,171220,173722.400,-0.100,-1.730,0.310
$EULER,171220,173722.400,291.062,11.312,-5.938
$GPRMC,173722.500,A,3943.6539,N,10514.5585,W,0.00,322.01,201217,,,A*76
$GYRO,171220,173722.500,-1.750,1.500,-15.438
$ACCEL,171220,173722.500,2.100,-0.420,9.490
$LINEAR,171220,173722.500,0.220,-1.460,-0.070
$EULER,171220,173722.500,292.562,11.000,-6.125
$GPRMC,173722.600,A,3943.6539,N,10514.5585,W,0.00,322.01,201217,,,A*75
$GYRO,171220,173722.600,-0.125,0.438,-15.812
$ACCEL,171220,173722.600,1.800,-0.550,9.420
$LINEAR,171220,173722.600,0.040,-1.980,0.240
$EULER,171220,173722.600,294.125,10.875,-6.312
$GPRMC,173722.700,A,3943.6539,N,10514.5585,W,0.00,322.01,201217,,,A*74
$GYRO,171220,173722.700,-1.562,2.250,-15.750
$ACCEL,171220,173722.700,1.840,-0.620,9.610
$LINEAR,171220,173722.700,0.230,-1.600,0.520
$EULER,171220,173722.700,295.625,10.625,-6.500
$GPRMC,173722.800,A,3943.6539,N,10514.5585,W,0.00,322.01,201217,,,A*7B
$GYRO,171220,173722.800,-3.812,0.750,-16.312
$ACCEL,171220,173722.800,1.860,-0.640,10.720
$LINEAR,171220,173722.800,-0.320,-1.320,-0.720
$EULER,171220,173722.800,297.188,10.500,-6.688
$GPRMC,173722.900,A,3943.6539,N,10514.5585,W,0.00,322.01,201217,,,A*7A
$GYRO,171220,173722.900,-1.062,-1.750,-16.438
$ACCEL,171220,173722.900,1.990,-0.480,10.450
$LINEAR,171220,173722.900,-0.030,-1.370,0.780
$EULER,171220,173722.900,298.812,10.375,-6.938
$GPRMC,173723.000,A,3943.6539,N,10514.5585,W,0.00,322.01,201217,,,A*72
$GYRO,171220,173723.000,0.375,-1.875,-16.062
$ACCEL,171220,173723.000,2.270,-0.410,8.970
$LINEAR,171220,173723.000,0.520,-1.740,0.840
$EULER,171220,173723.000,300.375,10.188,-7.188
$GPRMC,173723.100,A,3943.6539,N,10514.5585,W,0.00,322.01,201217,,,A*73
$GYRO,171220,173723.100,-1.938,0.188,-15.812
$ACCEL,171220,173723.100,2.140,-0.850,10.150
$LINEAR,171220,173723.100,0.410,-2.040,0.570
$EULER,171220,173723.100,301.875,10.125,-7.062
$GPRMC,173723.200,A,3943.6539,N,10514.5585,W,0.00,322.01,201217,,,A*70
$GYRO,171220,173723.200,1.438,-0.375,-15.750
$ACCEL,171220,173723.200,0.680,-0.610,8.510
$LINEAR,171220,173723.200,-0.660,-2.040,0.000
$EULER,171220,173723.200,303.375,9.812,-7.312
$GPRMC,173723.300,A,3943.6539,N,10514.5585,W,0.00,322.01,201217,,,A*71
$GYRO,171220,173723.300,-1.125,0.688,-15.938
$ACCEL,171220,173723.300,0.000,-0.940,9.360
$LINEAR,171220,173723.300,-1.630,-2.210,-0.220
$EULER,171220,173723.300,304.875,9.500,-7.562
$GPRMC,173723.400,A,3943.6539,N,10514.5585,W,0.00,322.01,201217,,,A*76
$GYRO,171220,173723.400,-2.188,-1.125,-15.438
$ACCEL,171220,173723.400,0.240,-0.540,9.960
$LINEAR,171220,173723.400,-1.290,-1.790,0.360
$EULER,171220,173723.400,306.375,8.750,-7.062
$GPRMC,173723.500,A,3943.6539,N,10514.5585,W,0.00,322.01,201217,,,A*77
$GYRO,171220,173723.500,0.000,-0.312,-14.312
$ACCEL,171220,173723.500,0.140,-0.640,10.250
$LINEAR,171220,173723.500,-1.280,-1.820,0.610
$EULER,171220,173723.500,307.688,8.312,-6.938
$GPRMC,173723.600,A,3943.6627,N,10514.5642,W,0.21,322.01,201217,,,A*73
$GYRO,171220,173723.600,1.125,-0.062,-13.875
$ACCEL,171220,173723.600,-0.300,-0.590,9.080
$LINEAR,171220,173723.600,-1.560,-1.590,-0.590
$EULER,171220,173723.600,309.000,7.312,-5.875
$GPRMC,173723.700,A,3943.6629,N,10514.5644,W,0.21,322.01,201217,,,A*7A
$GYRO,171220,173723.700,-1.625,-2.438,-14.000
$ACCEL,171220,173723.700,0.490,-0.590,9.400
$LINEAR,171220,173723.700,-0.690,-1.510,-0.280
$EULER,171220,173723.700,310.375,6.938,-5.375
$GPRMC,173723.800,A,3943.6631,N,10514.5646,W,0.22,322.01,201217,,,A*7D
$GYRO,171220,173723.800,-0.562,0.812,-13.500
$ACCEL,171220,173723.800,0.040,-0.730,9.830
$LINEAR,171220,173723.800,-1.090,-1.620,0.130
$EULER,171220,173723.800,311.812,6.625,-5.250
$GPRMC,173723.900,A,3943.6632,N,10514.5648,W,0.23,322.01,201217,,,A*70
$GYRO,171220,173723.900,0.062,-0.125,-13.500
$ACCEL,171220,173723.900,0.610,-0.360,10.240
$LINEAR,171220,173723.900,-0.470,-1.230,0.530
$EULER,171220,173723.900,313.000,6.375,-5.062
$GPRMC,173724.000,A,3943.6634,N,10514.5650,W,0.24,322.01,201217,,,A*76
$GYRO,171220,173724.000,-0.812,3.500,-13.000
$ACCEL,171220,173724.000,0.610,-0.540,10.360
$LINEAR,171220,173724.000,-0.460,-1.420,0.650
$EULER,171220,173724.000,314.312,6.312,-5.188
$GPRMC,173724.100,A,3943.6636,N,10514.5651,W,0.25,322.01,201217,,,A*75
$GYRO,171220,173724.100,-1.125,-2.062,-13.500
$ACCEL,171220,173724.100,1.810,-0.100,7.250
$LINEAR,171220,173724.100,0.720,-0.980,-2.450
$EULER,171220,173724.100,315.750,6.312,-5.188
$GPRMC,173724.200,A,3943.6637,N,10514.5653,W,0.26,322.01,201217,,,A*76
$GYRO,171220,173724.200,-0.750,-0.125,-14.812
$ACCEL,171220,173724.200,-0.070,-0.950,9.810
$LINEAR,171220,173724.200,-1.120,-1.840,0.100
$EULER,171220,173724.200,317.000,6.125,-5.250
$GPRMC,173724.300,A,3943.6640,N,10514.5655,W,0.27,322.01,201217,,,A*70
$GYRO,171220,173724.300,-1.812,1.625,-14.500
$ACCEL,171220,173724.300,0.160,-0.980,11.220
$LINEAR,171220,173724.300,-0.840,-1.880,1.500
$EULER,171220,173724.300,318.438,5.875,-5.250
$GPRMC,173724.400,A,3943.6643,N,10514.5658,W,0.28,322.01,201217,,,A*76
$GYRO,171220,173724.400,-0.500,-4.188,-14.938
$ACCEL,171220,173724.400,3.140,-0.550,9.890
$LINEAR,171220,173724.400,2.130,-1.470,0.180
$EULER,171220,173724.400,319.875,5.938,-5.375
$GPRMC,173724.500,A,3943.6646,N,10514.5661,W,0.29,322.01,201217,,,A*79
$GYRO,171220,173724.500,-0.250,1.062,-14.875
$ACCEL,171220,173724.500,0.230,-1.260,8.460
$LINEAR,171220,173724.500,-0.770,-2.180,-1.240
$EULER,171220,173724.500,321.312,5.875,-5.375
$GPRMC,173724.600,A,3943.6651,N,10514.5664,W,0.31,322.01,201217,,,A*70
$GYRO,171220,173724.600,-1.750,0.125,-17.250
$ACCEL,171220,173724.600,0.960,-1.440,9.890
$LINEAR,171220,173724.600,0.000,-2.360,0.180
$EULER,171220,173724.600,322.875,5.625,-5.375
$GPRMC,173724.700,A,3943.6661,N,10514.5669,W,3.59,323.68,201217,,,A*7C
$GYRO,171220,173724.700,-0.750,-0.688,-18.188
$ACCEL,171220,173724.700,2.200,-1.470,10.050
$LINEAR,171220,173724.700,1.240,-2.380,0.340
$EULER,171220,173724.700,324.625,5.562,-5.312
$GPRMC,173724.800,A,3943.6679,N,10514.5668,W,3.67,327.03,201217,,,A*7F
$GYRO,171220,173724.800,1.000,0.812,-20.062
$ACCEL,171220,173724.800,0.780,-1.680,9.160
$LINEAR,171220,173724.800,-0.140,-2.550,-0.550
$EULER,171220,173724.800,326.500,5.375,-5.062
$GPRMC,173724.900,A,3943.6698,N,10514.5666,W,4.41,333.10,201217,,,A*7B
$GYRO,171220,173724.900,-0.188,-2.875,-21.500
$ACCEL,171220,173724.900,2.110,-0.810,10.900
$LINEAR,171220,173724.900,1.210,-1.700,1.170
$EULER,171220,173724.900,328.562,5.188,-5.188
$GPRMC,173725.000,A,3943.6711,N,10514.5668,W,4.62,335.93,201217,,,A*71
$GYRO,171220,173725.000,-0.062,0.938,-20.500
$ACCEL,171220,173725.000,1.540,-1.390,8.850
$LINEAR,171220,173725.000,0.690,-2.300,-0.860
$EULER,171220,173725.000,330.562,4.938,-5.312
$GPRMC,173725.100,A,3943.6722,N,10514.5675,W,4.89,336.54,201217,,,A*71
$GYRO,171220,173725.100,-0.438,-2.000,-21.500
$ACCEL,171220,173725.100,1.590,-1.170,9.370
$LINEAR,171220,173725.100,0.770,-2.110,-0.340
$EULER,171220,173725.100,332.562,4.812,-5.500
$GPRMC,173725.200,A,3943.6731,N,10514.5680,W,5.31,338.10,201217,,,A*76
$GYRO,171220,173725.200,-1.000,-1.188,-21.562
$ACCEL,171220,173725.200,1.550,-1.800,9.730
$LINEAR,171220,173725.200,0.700,-2.690,0.000
$EULER,171220,173725.200,334.688,4.938,-5.250
$GPRMC,173725.300,A,3943.6740,N,10514.5684,W,5.70,339.63,201217,,,A*75
$GYRO,171220,173725.300,-2.125,0.938,-22.312
$ACCEL,171220,173725.300,0.780,-1.290,9.560
$LINEAR,171220,173725.300,-0.040,-2.120,-0.170
$EULER,171220,173725.300,336.750,4.812,-4.812
$GPRMC,173725.400,A,3943.6749,N,10514.5689,W,6.14,341.45,201217,,,A*7C
$GYRO,171220,173725.400,-1.188,-0.062,-23.500
$ACCEL,171220,173725.400,1.610,-2.200,10.380
$LINEAR,171220,173725.400,0.790,-3.040,0.640
$EULER,171220,173725.400,339.000,4.750,-4.938
$GPRMC,173725.500,A,3943.6757,N,10514.5694,W,6.55,342.88,201217,,,A*79
$GYRO,171220,173725.500,-1.375,-0.438,-24.438
$ACCEL,171220,173725.500,1.380,-1.840,9.360
$LINEAR,171220,173725.500,0.540,-2.520,-0.380
$EULER,171220,173725.500,341.312,4.875,-4.000
$GPRMC,173725.600,A,3943.6764,N,10514.5699,W,6.91,343.50,201217,,,A*7B
$GYRO,171220,173725.600,-1.375,-1.312,-24.875
$ACCEL,171220,173725.600,1.520,-1.080,8.780
$LINEAR,171220,173725.600,0.700,-1.780,-0.960
$EULER,171220,173725.600,343.688,4.750,-4.062
$GPRMC,173725.700,A,3943.6771,N,10514.5703,W,7.37,344.06,201217,,,A*75
$GYRO,171220,173725.700,0.125,2.312,-24.125
$ACCEL,171220,173725.700,1.190,-2.100,10.340
$LINEAR,171220,173725.700,0.390,-2.820,0.590
$EULER,171220,173725.700,346.062,4.625,-4.188
$GPRMC,173725.800,A,3943.6775,N,10514.5707,W,7.77,344.81,201217,,,A*71
$GYRO,171220,173725.800,-2.062,-1.312,-24.312
$ACCEL,171220,173725.800,1.590,-1.920,10.570
$LINEAR,171220,173725.800,0.790,-2.570,0.820
$EULER,171220,173725.800,348.375,4.625,-3.812
$GPRMC,173725.900,A,3943.6781,N,10514.5710,W,8.32,345.52,201217,,,A*7C
$GYRO,171220,173725.900,-0.938,-1.312,-24.062
$ACCEL,171220,173725.900,1.580,-1.930,8.440
$LINEAR,171220,173725.900,0.790,-2.590,-1.310
$EULER,171220,173725.900,350.750,4.625,-3.812
$GPRMC,173726.000,A,3943.6785,N,10514.5712,W,8.72,346.16,201217,,,A*77
$GYRO,171220,173726.000,-0.875,-0.125,-24.062
$ACCEL,171220,173726.000,1.100,-2.210,10.320
$LINEAR,171220,173726.000,0.350,-2.900,0.560
$EULER,171220,173726.000,353.125,4.375,-4.000
$GPRMC,173726.100,A,3943.6791,N,10514.5715,W,8.77,347.05,201217,,,A*72
$GYRO,171220,173726.100,-1.312,0.438,-24.188
$ACCEL,171220,173726.100,1.660,-2.060,9.560
$LINEAR,171220,173726.100,0.950,-2.760,-0.180
$EULER,171220,173726.100,355.438,4.125,-4.125
$GPRMC,173726.200,A,3943.6795,N,10514.5716,W,8.98,347.91,201217,,,A*7A
$GYRO,171220,173726.200,-1.812,1.250,-24.312
$ACCEL,171220,173726.200,1.560,-1.730,9.410
$LINEAR,171220,173726.200,0.910,-2.440,-0.340
$EULER,171220,173726.200,357.812,3.812,-4.125
$GPRMC,173726.300,A,3943.6798,N,10514.5717,W,9.03,348.79,201217,,,A*7D
$GYRO,171220,173726.300,2.438,0.500,-24.938
$ACCEL,171220,173726.300,1.540,-2.760,9.050
$LINEAR,171220,173726.300,0.910,-3.500,-0.690
$EULER,171220,173726.300,0.188,3.688,-4.312
$GPRMC,173726.400,A,3943.6802,N,10514.5719,W,9.10,349.41,201217,,,A*70
$GYRO,171220,173726.400,-1.062,-1.000,-24.875
$ACCEL,171220,173726.400,1.210,-1.960,9.920
$LINEAR,171220,173726.400,0.570,-2.630,0.150
$EULER,171220,173726.400,2.562,3.688,-3.875
$GPRMC,173726.500,A,3943.6806,N,10514.5720,W,9.17,350.22,201217,,,A*75
$GYRO,171220,173726.500,0.312,-2.438,-25.062
$ACCEL,171220,173726.500,1.790,-2.570,10.850
$LINEAR,171220,173726.500,1.160,-3.180,1.080
$EULER,171220,173726.500,4.938,3.688,-3.562
$GPRMC,173726.600,A,3943.6810,N,10514.5721,W,9.34,351.49,201217,,,A*7D
$GYRO,171220,173726.600,1.000,0.812,-24.625
$ACCEL,171220,173726.600,1.470,-2.440,9.900
$LINEAR,171220,173726.600,1.220,-3.200,0.190
$EULER,171220,173726.600,7.375,3.500,-3.750
$GPRMC,173726.700,A,3943.6814,N,10514.5721,W,9.40,353.71,201217,,,A*72
$GYRO,171220,173726.700,1.688,-2.250,-24.125
$ACCEL,171220,173726.700,1.590,-2.400,10.450
$LINEAR,171220,173726.700,1.000,-3.090,0.680
$EULER,171220,173726.700,9.500,3.438,-4.000
$GPRMC,173726.800,A,3943.6819,N,10514.5721,W,9.56,355.60,201217,,,A*71
$GYRO,171220,173726.800,-0.062,0.062,-23.688
$ACCEL,171220,173726.800,1.990,-2.210,9.760
$LINEAR,171220,173726.800,1.360,-2.690,0.000
$EULER,171220,173726.800,11.750,3.688,-2.812
$GPRMC,173726.900,A,3943.6824,N,10514.5720,W,9.61,357.92,201217,,,A*74
$GYRO,171220,173726.900,-0.312,-1.812,-22.812
$ACCEL,171220,173726.900,1.530,-1.930,8.640
$LINEAR,171220,173726.900,0.840,-2.300,-1.120
$EULER,171220,173726.900,14.000,4.000,-2.125
$GPRMC,173727.000,A,3943.6828,N,10514.5719,W,9.82,0.53,201217,,,A*7B
$GYRO,171220,173727.000,1.625,1.750,-21.625
$ACCEL,171220,173727.000,1.590,-1.450,10.150
$LINEAR,171220,173727.000,1.070,-2.380,-1.430
$EULER,171220,173727.000,16.312,3.938,-2.375
$GPRMC,173727.100,A,3943.6833,N,10514.5717,W,10.03,2.93,201217,,,A*41
$GYRO,171220,173727.100,0.812,-0.062,-20.562
$ACCEL,171220,173727.100,1.480,-1.510,10.900
$LINEAR,171220,173727.100,0.570,-1.910,0.600
$EULER,171220,173727.100,18.375,3.938,-2.562
$GPRMC,173727.200,A,3943.6837,N,10514.5715,W,10.24,5.26,201217,,,A*48
$GYRO,171220,173727.200,0.062,0.312,-18.938
$ACCEL,171220,173727.200,1.610,-0.570,9.530
$LINEAR,171220,173727.200,0.940,-1.040,-0.240
$EULER,171220,173727.200,20.250,3.875,-2.688
$GPRMC,173727.300,A,3943.6841,N,10514.5714,W,10.31,6.86,201217,,,A*44
$GYRO,171220,173727.300,2.438,-0.250,-15.875
$ACCEL,171220,173727.300,1.170,-0.640,8.560
$LINEAR,171220,173727.300,0.510,-1.140,-1.210
$EULER,171220,173727.300,21.938,3.812,-2.938
$GPRMC,173727.400,A,3943.6846,N,10514.5712,W,10.47,8.44,201217,,,A*43
$GYRO,171220,173727.400,1.625,-0.250,-13.688
$ACCEL,171220,173727.400,1.400,-0.760,10.570
$LINEAR,171220,173727.400,0.760,-1.280,0.800
$EULER,171220,173727.400,23.188,3.750,-3.000
$GPRMC,173727.500,A,3943.6849,N,10514.5711,W,10.46,9.31,201217,,,A*4C
$GYRO,171220,173727.500,-0.125,-1.500,-12.062
$ACCEL,171220,173727.500,1.300,-0.590,10.280
$LINEAR,171220,173727.500,0.660,-1.120,0.510
$EULER,171220,173727.500,24.375,3.750,-3.125
$GPRMC,173727.600,A,3943.6853,N,10514.5709,W,10.54,10.83,201217,,,A*7F
$GYRO,171220,173727.600,-1.062,0.125,-10.875
$ACCEL,171220,173727.600,1.440,-0.090,9.430
$LINEAR,171220,173727.600,0.780,-0.590,-0.330
$EULER,171220,173727.600,25.500,3.812,-2.938
$GPRMC,173727.700,A,3943.6857,N,10514.5707,W,10.75,12.11,201217,,,A*7E
$GYRO,171220,173727.700,-0.500,-1.062,-9.625
$ACCEL,171220,173727.700,1.250,-0.380,9.960
$LINEAR,171220,173727.700,0.690,-0.610,-0.130
$EULER,171220,173727.700,26.438,3.938,-2.938
$GPRMC,173727.800,A,3943.6861,N,10514.5705,W,10.83,13.49,201217,,,A*73
$GYRO,171220,173727.800,0.375,-0.312,-8.312
$ACCEL,171220,173727.800,1.370,0.420,10.360
$LINEAR,171220,173727.800,0.670,-0.080,0.590
$EULER,171220,173727.800,27.312,4.062,-2.938
$GPRMC,173727.900,A,3943.6867,N,10514.5702,W,11.06,14.95,201217,,,A*79
$GYRO,171220,173727.900,0.000,-0.125,-6.625
$ACCEL,171220,173727.900,1.410,0.360,10.670
$LINEAR,171220,173727.900,0.530,0.070,0.800
$EULER,171220,173727.900,28.000,4.062,-2.938
$GPRMC,173728.000,A,3943.6873,N,10514.5700,W,11.06,15.93,201217,,,A*7F
$GYRO,171220,173728.000,0.875,-1.250,-5.250
$ACCEL,171220,173728.000,1.080,0.750,9.500
$LINEAR,171220,173728.000,0.310,-0.070,0.280
$EULER,171220,173728.000,28.562,4.125,-2.938
$GPRMC,173728.100,A,3943.6878,N,10514.5697,W,11.07,16.94,201217,,,A*7F
$GYRO,171220,173728.100,0.750,0.000,-3.875
$ACCEL,171220,173728.100,0.930,0.740,10.760
$LINEAR,171220,173728.100,-0.170,-0.090,0.110
$EULER,171220,173728.100,29.000,4.125,-2.938
$GPRMC,173728.200,A,3943.6883,N,10514.5692,W,11.11,17.78,201217,,,A*79
$GYRO,171220,173728.200,-0.562,0.062,-3.125
$ACCEL,171220,173728.200,0.770,0.290,9.440
$LINEAR,171220,173728.200,0.010,0.160,-0.350
$EULER,171220,173728.200,29.312,4.188,-2.938
$GPRMC,173728.300,A,3943.6888,N,10514.5688,W,11.16,18.66,201217,,,A*7F
$GYRO,171220,173728.300,-0.188,-2.000,-2.250
$ACCEL,171220,173728.300,1.070,1.290,9.860
$LINEAR,171220,173728.300,-0.200,0.430,0.710
$EULER,171220,173728.300,29.500,4.125,-2.938
$GPRMC,173728.400,A,3943.6892,N,10514.5684,W,11.18,19.17,201217,,,A*76
$GYRO,171220,173728.400,-1.312,-0.812,-1.000
$ACCEL,171220,173728.400,0.560,1.460,9.550
$LINEAR,171220,173728.400,-0.170,0.690,-0.130
$EULER,171220,173728.400,29.688,4.250,-2.875
$GPRMC,173728.500,A,3943.6897,N,10514.5679,W,11.20,19.72,201217,,,A*78
$GYRO,171220,173728.500,-0.562,-3.250,-0.438
$ACCEL,171220,173728.500,0.740,1.600,9.160
$LINEAR,171220,173728.500,0.010,1.090,-0.590
$EULER,171220,173728.500,29.750,4.250,-2.938
$GPRMC,173728.600,A,3943.6903,N,10514.5673,W,11.37,21.75,201217,,,A*77
$GYRO,171220,173728.600,-0.500,-1.625,0.125
$ACCEL,171220,173728.600,0.660,0.790,10.300
$LINEAR,171220,173728.600,-0.090,0.300,0.530
$EULER,171220,173728.600,29.750,4.438,-2.812
$GPRMC,173728.700,A,3943.6908,N,10514.5670,W,11.35,22.57,201217,,,A*7F
$GYRO,171220,173728.700,-0.375,1.312,0.938
$ACCEL,171220,173728.700,0.600,0.900,10.170
$LINEAR,171220,173728.700,-0.240,0.330,-0.130
$EULER,171220,173728.700,29.688,4.500,-2.750
$GPRMC,173728.800,A,3943.6913,N,10514.5667,W,11.31,23.44,201217,,,A*7B
$GYRO,171220,173728.800,-2.312,-1.375,1.312
$ACCEL,171220,173728.800,0.550,1.350,8.640
$LINEAR,171220,173728.800,-0.230,0.880,-1.110
$EULER,171220,173728.800,29.625,4.625,-2.688
$GPRMC,173728.900,A,3943.6917,N,10514.5664,W,11.28,24.22,201217,,,A*72
$GYRO,171220,173728.900,-0.375,0.812,1.500
$ACCEL,171220,173728.900,0.450,1.060,11.890
$LINEAR,171220,173728.900,-0.350,0.620,2.120
$EULER,171220,173728.900,29.500,4.688,-2.500
$GPRMC,173729.000,A,3943.6922,N,10514.5661,W,11.24,25.06,201217,,,A*72
$GYRO,171220,173729.000,0.562,-0.938,2.562
$ACCEL,171220,173729.000,0.710,1.410,8.720
$LINEAR,171220,173729.000,0.180,1.440,0.860
$EULER,171220,173729.000,29.250,4.750,-2.562
$GPRMC,173729.100,A,3943.6926,N,10514.5658,W,11.23,25.67,201217,,,A*7D
$GYRO,171220,173729.100,-3.875,0.312,2.938
$ACCEL,171220,173729.100,-0.140,1.460,11.470
$LINEAR,171220,173729.100,-0.980,1.030,1.710
$EULER,171220,173729.100,29.000,4.875,-2.500
$GPRMC,173729.200,A,3943.6931,N,10514.5655,W,11.21,26.48,201217,,,A*79
$GYRO,171220,173729.200,-1.812,0.812,3.312
$ACCEL,171220,173729.200,0.450,1.510,11.380
$LINEAR,171220,173729.200,-0.390,1.090,1.610
$EULER,171220,173729.200,28.688,4.875,-2.438
$GPRMC,173729.300,A,3943.6935,N,10514.5652,W,11.21,27.46,201217,,,A*74
$GYRO,171220,173729.300,-1.188,2.062,4.188
$ACCEL,171220,173729.300,-0.280,1.470,9.560
$LINEAR,171220,173729.300,-1.120,1.080,-0.190
$EULER,171220,173729.300,28.312,4.875,-2.312
$GPRMC,173729.400,A,3943.6939,N,10514.5648,W,11.23,28.61,201217,,,A*7C
$GYRO,171220,173729.400,-1.188,-1.875,5.000
$ACCEL,171220,173729.400,-0.060,2.100,9.490
$LINEAR,171220,173729.400,-0.840,1.660,-0.270
$EULER,171220,173729.400,27.938,4.500,-2.562
$GPRMC,173729.500,A,3943.6943,N,10514.5645,W,11.24,29.76,201217,,,A*7D
$GYRO,171220,173729.500,2.312,-2.250,5.625
$ACCEL,171220,173729.500,0.340,2.040,8.440
$LINEAR,171220,173729.500,-0.420,1.610,-1.320
$EULER,171220,173729.500,27.375,4.500,-2.500
$GPRMC,173729.600,A,3943.6947,N,10514.5641,W,11.26,30.85,201217,,,A*78
$GYRO,171220,173729.600,-1.938,-4.375,6.500
$ACCEL,171220,173729.600,-0.590,2.340,8.450
$LINEAR,171220,173729.600,-1.390,1.950,-1.310
$EULER,171220,173729.600,26.812,4.625,-2.250
$GPRMC,173729.700,A,3943.6951,N,10514.5638,W,11.28,31.96,201217,,,A*7D
$GYRO,171220,173729.700,-0.875,-1.188,7.250
$ACCEL,171220,173729.700,-0.510,2.160,10.040
$LINEAR,171220,173729.700,-1.030,1.410,0.040
$EULER,171220,173729.700,26.062,4.812,-2.000
$GPRMC,173729.800,A,3943.6955,N,10514.5635,W,11.31,32.95,201217,,,A*73
$GYRO,171220,173729.800,-4.000,1.688,8.188
$ACCEL,171220,173729.800,-0.550,2.190,11.770
$LINEAR,171220,173729.800,-1.390,1.870,2.010
$EULER,171220,173729.800,25.375,4.875,-1.812
$GPRMC,173729.900,A,3943.6959,N,10514.5632,W,11.50,34.55,201217,,,A*74
$GYRO,171220,173729.900,-1.000,-0.625,8.250
$ACCEL,171220,173729.900,-0.120,1.470,11.140
$LINEAR,171220,173729.900,-0.980,1.200,1.370
$EULER,171220,173729.900,24.562,5.000,-1.562
$GPRMC,173730.000,A,3943.6964,N,10514.5628,W,11.67,35.94,201217,,,A*78
$GYRO,171220,173730.000,-3.438,-1.625,8.125
$ACCEL,171220,173730.000,0.010,1.750,10.290
$LINEAR,171220,173730.000,-0.840,1.530,0.530
$EULER,171220,173730.000,23.812,5.062,-1.312
$GPRMC,173730.100,A,3943.6969,N,10514.5624,W,11.91,36.61,201217,,,A*78
$GYRO,171220,173730.100,-0.062,-2.812,8.125
$ACCEL,171220,173730.100,0.070,2.240,8.910
$LINEAR,171220,173730.100,-0.810,2.060,-0.840
$EULER,171220,173730.100,23.000,5.188,-1.062
$GPRMC,173730.200,A,3943.6973,N,10514.5618,W,12.16,37.60,201217,,,A*73
$GYRO,171220,173730.200,-0.250,-2.188,8.625
$ACCEL,171220,173730.200,0.100,2.600,9.150
$LINEAR,171220,173730.200,-0.790,2.440,-0.600
$EULER,171220,173730.200,22.188,5.250,-0.938
$GPRMC,173730.300,A,3943.6978,N,10514.5615,W,12.41,38.59,201217,,,A*73
$GYRO,171220,173730.300,0.062,-0.375,9.438
$ACCEL,171220,173730.300,-0.120,2.470,9.400
$LINEAR,171220,173730.300,-1.040,2.330,-0.350
$EULER,171220,173730.300,21.312,5.312,-0.812
$GPRMC,173730.400,A,3943.6982,N,10514.5609,W,12.69,39.68,201217,,,A*75
$GYRO,171220,173730.400,-1.062,-0.312,10.125
$ACCEL,171220,173730.400,-0.230,1.970,10.960
$LINEAR,171220,173730.400,-1.170,1.860,1.200
$EULER,171220,173730.400,20.312,5.500,-0.625
$GPRMC,173730.500,A,3943.6987,N,10514.5604,W,12.94,40.81,201217,,,A*77
$GYRO,171220,173730.500,-0.500,-0.500,10.938
$ACCEL,171220,173730.500,0.050,2.730,10.860
$LINEAR,171220,173730.500,-0.900,2.640,1.100
$EULER,171220,173730.500,19.250,5.562,-0.562
$GPRMC,173730.600,A,3943.6991,N,10514.5598,W,13.24,41.58,201217,,,A*7A
$GYRO,171220,173730.600,0.500,0.062,11.938
$ACCEL,171220,173730.600,-0.540,2.550,11.220
$LINEAR,171220,173730.600,-1.100,2.640,-2.290
$EULER,171220,173730.600,18.188,5.625,-0.438
$GPRMC,173730.700,A,3943.6995,N,10514.5591,W,13.57,42.20,201217,,,A*7E
$GYRO,171220,173730.700,-1.188,-1.188,12.188
$ACCEL,171220,173730.700,-0.490,2.800,9.700
$LINEAR,171220,173730.700,-1.470,2.750,-0.050
$EULER,171220,173730.700,17.000,5.688,-0.250
$GPRMC,173730.800,A,3943.6999,N,10514.5586,W,13.89,42.75,201217,,,A*78
$GYRO,171220,173730.800,-0.375,1.562,13.125
$ACCEL,171220,173730.800,-0.500,2.250,10.110
$LINEAR,171220,173730.800,-1.490,2.220,0.350
$EULER,171220,173730.800,15.688,5.750,-0.188
$GPRMC,173730.900,A,3943.7003,N,10514.5581,W,14.19,43.02,201217,,,A*7A
$GYRO,171220,173730.900,-0.875,0.875,14.000
$ACCEL,171220,173730.900,-0.570,1.960,10.700
$LINEAR,171220,173730.900,-1.550,1.950,0.940
$EULER,171220,173730.900,14.375,5.750,0.000
$GPRMC,173731.000,A,3943.7007,N,10514.5575,W,14.48,43.32,201217,,,A*7A
$GYRO,171220,173731.000,-0.188,-1.688,14.188
$ACCEL,171220,173731.000,-0.260,2.600,9.100
$LINEAR,171220,173731.000,-1.010,2.920,-0.550
$EULER,171220,173731.000,13.125,5.812,0.000
$GPRMC,173731.100,A,3943.7011,N,10514.5570,W,14.78,43.56,201217,,,A*78
$GYRO,171220,173731.100,-0.250,-1.500,14.250
$ACCEL,171220,173731.100,-0.410,2.990,9.730
$LINEAR,171220,173731.100,-1.430,3.020,-0.010
$EULER,171220,173731.100,11.750,6.000,0.125
$GPRMC,173731.200,A,3943.7016,N,10514.5563,W,15.14,43.58,201217,,,A*7B
$GYRO,171220,173731.200,-2.688,0.875,14.438
$ACCEL,171220,173731.200,-0.010,2.430,11.840
$LINEAR,171220,173731.200,-1.010,2.390,2.080
$EULER,171220,173731.200,10.375,5.812,-0.188
$GPRMC,173731.300,A,3943.7021,N,10514.5557,W,15.39,43.46,201217,,,A*79
$GYRO,171220,173731.300,0.812,-1.750,14.250
$ACCEL,171220,173731.300,0.020,2.540,10.010
$LINEAR,171220,173731.300,-0.990,2.540,0.250
$EULER,171220,173731.300,9.000,5.938,0.000
$GPRMC,173731.400,A,3943.7025,N,10514.5551,W,15.74,43.30,201217,,,A*74
$GYRO,171220,173731.400,0.562,-1.812,13.688
$ACCEL,171220,173731.400,-0.140,2.950,9.020
$LINEAR,171220,173731.400,-1.120,2.900,-0.730
$EULER,171220,173731.400,7.688,5.688,-0.250
$GPRMC,173731.500,A,3943.7030,N,10514.5544,W,16.10,42.86,201217,,,A*78
$GYRO,171220,173731.500,1.250,-1.750,13.438
$ACCEL,171220,173731.500,-0.250,2.740,8.350
$LINEAR,171220,173731.500,-1.180,2.550,-1.400
$EULER,171220,173731.500,6.438,5.438,-1.000
$GPRMC,173731.600,A,3943.7035,N,10514.5537,W,16.44,42.22,201217,,,A*75
$GYRO,171220,173731.600,-2.875,-0.125,13.688
$ACCEL,171220,173731.600,-0.380,3.040,10.220
$LINEAR,171220,173731.600,-1.330,2.890,0.460
$EULER,171220,173731.600,5.125,5.562,-0.812
$GPRMC,173731.700,A,3943.7040,N,10514.5530,W,16.84,41.62,201217,,,A*7A
$GYRO,171220,173731.700,0.250,-0.875,13.312
$ACCEL,171220,173731.700,-0.130,2.540,10.700
$LINEAR,171220,173731.700,-1.080,2.330,0.940
$EULER,171220,173731.700,3.938,5.500,-1.188
$GPRMC,173731.800,A,3943.7045,N,10514.5525,W,17.17,40.93,201217,,,A*70
$GYRO,171220,173731.800,-1.188,1.000,13.875
$ACCEL,171220,173731.800,0.010,2.280,11.020
$LINEAR,171220,173731.800,-0.930,2.100,1.260
$EULER,171220,173731.800,2.625,5.500,-1.000
$GPRMC,173731.900,A,3943.7050,N,10514.5519,W,17.48,40.09,201217,,,A*73
$GYRO,171220,173731.900,0.250,-3.312,13.750
$ACCEL,171220,173731.900,0.200,3.040,9.450
$LINEAR,171220,173731.900,-0.770,2.880,-0.300
$EULER,171220,173731.900,1.250,5.688,-0.875
$GPRMC,173732.000,A,3943.7055,N,10514.5514,W,17.76,39.27,201217,,,A*7E
$GYRO,171220,173732.000,-1.250,-1.562,14.000
$ACCEL,171220,173732.000,-0.020,2.760,9.470
$LINEAR,171220,173732.000,-1.030,2.620,-0.270
$EULER,171220,173732.000,359.938,5.875,-0.750
$GPRMC,173732.100,A,3943.7060,N,10514.5508,W,17.84,38.93,201217,,,A*77
$GYRO,171220,173732.100,-1.438,0.562,14.312
$ACCEL,171220,173732.100,0.090,2.690,9.420
$LINEAR,171220,173732.100,-0.930,2.590,-0.320
$EULER,171220,173732.100,358.562,6.000,-0.562
$GPRMC,173732.200,A,3943.7065,N,10514.5503,W,18.25,37.80,201217,,,A*73
$GYRO,171220,173732.200,-1.688,-2.375,14.625
$ACCEL,171220,173732.200,0.190,2.790,10.550
$LINEAR,171220,173732.200,-0.840,2.720,0.800
$EULER,171220,173732.200,357.188,6.062,-0.375
$GPRMC,173732.300,A,3943.7071,N,10514.5498,W,18.66,36.34,201217,,,A*7D
$GYRO,171220,173732.300,-4.562,2.750,15.000
$ACCEL,171220,173732.300,-0.270,2.280,11.870
$LINEAR,171220,173732.300,-1.320,2.240,2.120
$EULER,171220,173732.300,355.750,6.125,-0.188
$GPRMC,173732.400,A,3943.7077,N,10514.5494,W,19.11,34.77,201217,,,A*74
$GYRO,171220,173732.400,-1.062,-3.500,14.500
$ACCEL,171220,173732.400,0.040,2.990,8.700
$LINEAR,171220,173732.400,-1.030,2.970,-1.030
$EULER,171220,173732.400,354.375,6.312,-0.062
$GPRMC,173732.500,A,3943.7082,N,10514.5489,W,19.50,33.32,201217,,,A*70
$GYRO,171220,173732.500,1.562,-0.375,15.125
$ACCEL,171220,173732.500,-0.110,2.460,10.510
$LINEAR,171220,173732.500,-1.190,2.490,0.760
$EULER,171220,173732.500,352.938,6.250,0.125
$GPRMC,173732.600,A,3943.7087,N,10514.5485,W,19.66,32.73,201217,,,A*7B
$GYRO,171220,173732.600,-2.250,4.188,15.938
$ACCEL,171220,173732.600,0.150,2.430,11.250
$LINEAR,171220,173732.600,-0.900,2.470,1.500
$EULER,171220,173732.600,351.438,6.125,0.188
$GPRMC,173732.700,A,3943.7092,N,10514.5481,W,19.83,32.09,201217,,,A*7C
$GYRO,171220,173732.700,-1.125,-0.438,15.250
$ACCEL,171220,173732.700,-0.100,3.060,9.900
$LINEAR,171220,173732.700,-1.170,3.140,0.150
$EULER,171220,173732.700,349.938,6.250,0.438
$GPRMC,173732.800,A,3943.7094,N,10514.5477,W,20.03,31.46,201217,,,A*76
$GYRO,171220,173732.800,-0.812,0.312,14.438
$ACCEL,171220,173732.800,0.600,2.470,10.130
$LINEAR,171220,173732.800,-0.470,2.590,0.380
$EULER,171220,173732.800,348.500,6.250,0.625
$GPRMC,173732.900,A,3943.7096,N,10514.5473,W,20.22,30.80,201217,,,A*79
$GYRO,171220,173732.900,-0.250,-0.500,14.250
$ACCEL,171220,173732.900,-0.010,2.870,9.580
$LINEAR,171220,173732.900,-1.090,3.010,-0.160
$EULER,171220,173732.900,347.125,6.312,0.812
$GPRMC,173733.000,A,3943.7099,N,10514.5470,W,20.26,30.35,201217,,,A*77
$GYRO,171220,173733.000,2.438,-0.938,14.375
$ACCEL,171220,173733.000,0.400,2.760,9.610
$LINEAR,171220,173733.000,-0.670,2.930,-0.120
$EULER,171220,173733.000,345.750,6.312,0.938
$GPRMC,173733.100,A,3943.7103,N,10514.5467,W,20.32,30.07,201217,,,A*76
$GYRO,171220,173733.100,0.688,-1.250,14.375
$ACCEL,171220,173733.100,0.230,2.720,10.430
$LINEAR,171220,173733.100,-0.850,2.910,0.680
$EULER,171220,173733.100,344.375,6.375,1.062
$GPRMC,173733.200,A,3943.7107,N,10514.5464,W,20.38,29.65,201217,,,A*74
$GYRO,171220,173733.200,0.438,0.062,14.438
$ACCEL,171220,173733.200,-0.010,2.950,9.790
$LINEAR,171220,173733.200,-1.120,3.150,0.050
$EULER,171220,173733.200,343.000,6.438,1.188
$GPRMC,173733.300,A,3943.7111,N,10514.5461,W,20.43,29.30,201217,,,A*7B
$GYRO,171220,173733.300,1.938,0.375,14.375
$ACCEL,171220,173733.300,0.340,2.440,9.730
$LINEAR,171220,173733.300,-0.680,2.420,-0.010
$EULER,171220,173733.300,341.625,6.000,-0.125
$GPRMC,173733.400,A,3943.7117,N,10514.5455,W,20.50,28.83,201217,,,A*76
$GYRO,171220,173733.400,-1.312,-0.438,14.625
$ACCEL,171220,173733.400,-0.210,2.600,11.420
$LINEAR,171220,173733.400,-1.200,2.430,1.660
$EULER,171220,173733.400,340.312,5.812,-0.938
$GPRMC,173733.500,A,3943.7123,N,10514.5449,W,20.56,28.25,201217,,,A*77
$GYRO,171220,173733.500,1.688,0.000,14.375
$ACCEL,171220,173733.500,0.200,2.670,9.020
$LINEAR,171220,173733.500,-0.800,2.510,-0.720
$EULER,171220,173733.500,338.875,5.875,-0.938
$GPRMC,173733.600,A,3943.7128,N,10514.5445,W,20.61,27.69,201217,,,A*70
$GYRO,171220,173733.600,2.312,-1.562,13.750
$ACCEL,171220,173733.600,0.300,2.850,8.530
$LINEAR,171220,173733.600,-0.710,2.700,-1.210
$EULER,171220,173733.600,337.500,5.938,-0.875
$GPRMC,173733.700,A,3943.7133,N,10514.5440,W,20.63,27.09,201217,,,A*7A
$GYRO,171220,173733.700,0.250,-0.688,13.438
$ACCEL,171220,173733.700,0.390,2.490,8.300
$LINEAR,171220,173733.700,-0.630,2.350,-1.440
$EULER,171220,173733.700,336.188,6.000,-0.812
$GPRMC,173733.800,A,3943.7138,N,10514.5436,W,20.65,26.40,201217,,,A*75
$GYRO,171220,173733.800,0.938,2.250,12.625
$ACCEL,171220,173733.800,0.290,2.100,9.650
$LINEAR,171220,173733.800,-0.350,2.380,1.310
$EULER,171220,173733.800,335.000,5.938,-0.562
$GPRMC,173733.900,A,3943.7143,N,10514.5432,W,20.68,25.71,201217,,,A*70
$GYRO,171220,173733.900,2.062,0.062,12.312
$ACCEL,171220,173733.900,0.160,2.160,12.670
$LINEAR,171220,173733.900,-0.840,2.040,2.910
$EULER,171220,173733.900,333.750,5.875,-0.625
$GPRMC,173734.000,A,3943.7147,N,10514.5428,W,20.72,24.96,201217,,,A*72
$GYRO,171220,173734.000,-5.125,1.000,11.500
$ACCEL,171220,173734.000,0.120,1.730,9.450
$LINEAR,171220,173734.000,-0.900,1.640,-0.290
$EULER,171220,173734.000,332.625,6.000,-0.438
$GPRMC,173734.100,A,3943.7152,N,10514.5424,W,20.78,24.46,201217,,,A*7C
$GYRO,171220,173734.100,4.500,-1.188,10.500
$ACCEL,171220,173734.100,0.930,1.530,8.650
$LINEAR,171220,173734.100,-0.100,1.450,-1.090
$EULER,171220,173734.100,331.562,6.062,-0.438
$GPRMC,173734.200,A,3943.7158,N,10514.5421,W,20.85,24.07,201217,,,A*77
$GYRO,171220,173734.200,1.188,-0.812,10.500
$ACCEL,171220,173734.200,0.230,2.090,11.330
$LINEAR,171220,173734.200,-0.790,2.010,1.580
$EULER,171220,173734.200,330.500,6.000,-0.438
$GPRMC,173734.300,A,3943.7164,N,10514.5418,W,20.89,23.56,201217,,,A*7C
$GYRO,171220,173734.300,0.750,-0.875,10.250
$ACCEL,171220,173734.300,0.310,2.050,9.700
$LINEAR,171220,173734.300,-0.600,2.370,0.720
$EULER,171220,173734.300,329.500,6.062,-0.438
$GPRMC,173734.400,A,3943.7170,N,10514.5415,W,20.66,22.70,201217,,,A*77
$GYRO,171220,173734.400,3.188,-3.312,9.812
$ACCEL,171220,173734.400,0.030,2.420,8.310
$LINEAR,171220,173734.400,-0.680,2.040,-1.570
$EULER,171220,173734.400,328.500,6.250,-0.500
$GPRMC,173734.500,A,3943.7176,N,10514.5413,W,20.15,21.47,201217,,,A*75
$GYRO,171220,173734.500,0.062,1.062,10.312
$ACCEL,171220,173734.500,0.000,2.200,10.010
$LINEAR,171220,173734.500,-1.080,2.110,0.260
$EULER,171220,173734.500,327.562,6.250,-0.500
$GPRMC,173734.600,A,3943.7183,N,10514.5412,W,19.80,19.90,201217,,,A*7A
$GYRO,171220,173734.600,1.438,-1.500,9.875
$ACCEL,171220,173734.600,0.740,2.220,9.830
$LINEAR,171220,173734.600,-1.000,1.820,1.920
$EULER,171220,173734.600,326.562,6.125,-0.375
$GPRMC,173734.700,A,3943.7190,N,10514.5411,W,19.49,18.62,201217,,,A*73
$GYRO,171220,173734.700,0.500,1.688,10.875
$ACCEL,171220,173734.700,-0.680,1.810,10.450
$LINEAR,171220,173734.700,-1.430,1.690,0.610
$EULER,171220,173734.700,325.562,6.125,-0.375
$GPRMC,173734.800,A,3943.7199,N,10514.5414,W,18.98,16.86,201217,,,A*79
$GYRO,171220,173734.800,0.188,-2.375,10.375
$ACCEL,171220,173734.800,-0.570,2.330,9.470
$LINEAR,171220,173734.800,-1.630,2.280,-0.270
$EULER,171220,173734.800,324.500,6.188,-0.250
$GPRMC,173734.900,A,3943.7208,N,10514.5414,W,18.90,16.03,201217,,,A*76
$GYRO,171220,173734.900,2.188,0.125,11.188
$ACCEL,171220,173734.900,-0.840,2.280,9.710
$LINEAR,171220,173734.900,-1.910,2.230,-0.020
$EULER,171220,173734.900,323.438,6.250,-0.250
$GPRMC,173735.000,A,3943.7215,N,10514.5414,W,18.68,15.12,201217,,,A*76
$GYRO,171220,173735.000,-0.938,-0.500,11.938
$ACCEL,171220,173735.000,-0.600,1.690,11.080
$LINEAR,171220,173735.000,-1.670,1.640,1.340
$EULER,171220,173735.000,322.312,6.250,-0.250
$GPRMC,173735.100,A,3943.7222,N,10514.5412,W,18.70,14.72,201217,,,A*7B
$GYRO,171220,173735.100,-1.312,1.812,12.688
$ACCEL,171220,173735.100,-0.730,2.250,11.960
$LINEAR,171220,173735.100,-1.820,2.200,2.210
$EULER,171220,173735.100,321.125,6.312,-0.250
$GPRMC,173735.200,A,3943.7229,N,10514.5410,W,18.72,14.34,201217,,,A*71
$GYRO,171220,173735.200,0.375,0.438,12.625
$ACCEL,171220,173735.200,-0.920,2.050,8.530
$LINEAR,171220,173735.200,-2.010,2.000,-1.210
$EULER,171220,173735.200,319.938,6.375,-0.250
$GPRMC,173735.300,A,3943.7235,N,10514.5409,W,18.69,13.78,201217,,,A*70
$GYRO,171220,173735.300,-1.188,0.875,12.438
$ACCEL,171220,173735.300,-0.910,1.990,9.030
$LINEAR,171220,173735.300,-2.000,1.950,-0.700
$EULER,171220,173735.300,318.812,6.375,-0.188
$GPRMC,173735.400,A,3943.7241,N,10514.5408,W,18.69,13.39,201217,,,A*70
$GYRO,171220,173735.400,2.562,-0.750,12.125
$ACCEL,171220,173735.400,-0.770,2.230,9.590
$LINEAR,171220,173735.400,-1.860,2.190,-0.150
$EULER,171220,173735.400,317.625,6.312,-0.188
$GPRMC,173735.500,A,3943.7247,N,10514.5407,W,18.61,12.61,201217,,,A*7C
$GYRO,171220,173735.500,2.688,-2.312,11.812
$ACCEL,171220,173735.500,0.820,2.550,8.680
$LINEAR,171220,173735.500,-0.280,2.510,-1.050
$EULER,171220,173735.500,316.375,6.438,-0.188
$GPRMC,173735.600,A,3943.7253,N,10514.5406,W,18.28,11.51,201217,,,A*76
$GYRO,171220,173735.600,0.250,-3.438,12.812
$ACCEL,171220,173735.600,-0.710,2.350,9.850
$LINEAR,171220,173735.600,-1.810,2.310,0.110
$EULER,171220,173735.600,315.188,6.438,-0.188
$GPRMC,173735.700,A,3943.7259,N,10514.5406,W,18.02,10.37,201217,,,A*74
$GYRO,171220,173735.700,1.250,1.438,15.312
$ACCEL,171220,173735.700,-0.500,2.590,10.600
$LINEAR,171220,173735.700,-1.580,2.540,0.850
$EULER,171220,173735.700,313.750,6.312,-0.250
$GPRMC,173735.800,A,3943.7265,N,10514.5405,W,17.75,9.16,201217,,,A*43
$GYRO,171220,173735.800,2.875,-0.938,15.125
$ACCEL,171220,173735.800,0.360,3.700,9.000
$LINEAR,171220,173735.800,-0.710,3.660,-0.740
$EULER,171220,173735.800,312.312,6.312,-0.188
$GPRMC,173735.900,A,3943.7270,N,10514.5406,W,17.50,7.92,201217,,,A*40
$GYRO,171220,173735.900,-0.812,1.375,15.250
$ACCEL,171220,173735.900,0.000,3.230,9.440
$LINEAR,171220,173735.900,-1.070,3.190,-0.300
$EULER,171220,173735.900,310.812,6.312,-0.250
$GPRMC,173736.000,A,3943.7276,N,10514.5406,W,17.25,6.69,201217,,,A*4B
$GYRO,171220,173736.000,-0.125,0.375,15.250
$ACCEL,171220,173736.000,-0.140,3.530,8.230
$LINEAR,171220,173736.000,-1.200,3.410,-1.510
$EULER,171220,173736.000,309.375,6.125,-0.625
$GPRMC,173736.100,A,3943.7282,N,10514.5405,W,17.28,6.24,201217,,,A*46
$GYRO,171220,173736.100,2.250,1.062,15.250
$ACCEL,171220,173736.100,0.370,3.300,9.500
$LINEAR,171220,173736.100,-0.660,3.190,-0.240
$EULER,171220,173736.100,307.938,6.062,-0.625
$GPRMC,173736.200,A,3943.7290,N,10514.5403,W,17.28,5.50,201217,,,A*40
$GYRO,171220,173736.200,3.938,0.375,15.125
$ACCEL,171220,173736.200,0.110,2.550,10.960
$LINEAR,171220,173736.200,-0.910,2.460,1.210
$EULER,171220,173736.200,306.438,6.000,-0.500
$GPRMC,173736.300,A,3943.7297,N,10514.5404,W,17.25,4.82,201217,,,A*42
$GYRO,171220,173736.300,1.438,0.188,15.062
$ACCEL,171220,173736.300,0.380,3.720,9.020
$LINEAR,171220,173736.300,-0.640,3.640,-0.720
$EULER,171220,173736.300,304.938,6.000,-0.438
$GPRMC,173736.400,A,3943.7303,N,10514.5404,W,17.08,3.84,201217,,,A*47
$GYRO,171220,173736.400,-1.125,0.312,15.062
$ACCEL,171220,173736.400,0.180,3.370,8.760
$LINEAR,171220,173736.400,-0.830,3.310,-0.980
$EULER,171220,173736.400,303.500,5.938,-0.312
$GPRMC,173736.500,A,3943.7310,N,10514.5404,W,17.10,3.35,201217,,,A*47
$GYRO,171220,173736.500,4.062,0.000,14.312
$ACCEL,171220,173736.500,0.250,2.590,9.170
$LINEAR,171220,173736.500,-0.750,2.550,-0.570
$EULER,171220,173736.500,302.062,5.812,-0.188
$GPRMC,173736.600,A,3943.7315,N,10514.5405,W,16.66,1.23,201217,,,A*45
$GYRO,171220,173736.600,-3.438,2.250,14.312
$ACCEL,171220,173736.600,0.000,2.470,10.930
$LINEAR,171220,173736.600,-0.980,3.000,-0.410
$EULER,171220,173736.600,300.688,5.750,-0.062
$GPRMC,173736.700,A,3943.7320,N,10514.5407,W,16.28,359.14,201217,,,A*40
$GYRO,171220,173736.700,0.188,2.500,13.812
$ACCEL,171220,173736.700,0.230,2.380,10.630
$LINEAR,171220,173736.700,-0.410,2.620,-1.470
$EULER,171220,173736.700,299.312,5.688,-0.062
$GPRMC,173736.800,A,3943.7325,N,10514.5410,W,15.94,357.23,201217,,,A*42
$GYRO,171220,173736.800,6.500,-2.125,12.625
$ACCEL,171220,173736.800,0.550,2.960,7.220
$LINEAR,171220,173736.800,-0.770,2.790,1.520
$EULER,171220,173736.800,298.062,5.625,0.000
$GPRMC,173736.900,A,3943.7329,N,10514.5414,W,15.69,355.72,201217,,,A*4F
$GYRO,171220,173736.900,1.812,1.625,12.562
$ACCEL,171220,173736.900,0.480,2.210,9.240
$LINEAR,171220,173736.900,-0.850,2.530,0.880
$EULER,171220,173736.900,296.812,5.562,0.062
$GPRMC,173737.000,A,3943.7333,N,10514.5418,W,15.30,353.51,201217,,,A*4B
$GYRO,171220,173737.000,-0.188,0.750,12.000
$ACCEL,171220,173737.000,0.330,2.430,9.600
$LINEAR,171220,173737.000,-0.670,2.230,-1.900
$EULER,171220,173737.000,295.688,5.438,0.125
$GPRMC,173737.100,A,3943.7336,N,10514.5421,W,15.24,352.90,201217,,,A*4C
$GYRO,171220,173737.100,-2.500,-0.125,10.750
$ACCEL,171220,173737.100,0.390,2.580,9.900
$LINEAR,171220,173737.100,-0.490,2.250,-0.950
$EULER,171220,173737.100,294.562,5.312,0.312
$GPRMC,173737.200,A,3943.7339,N,10514.5424,W,14.94,351.59,201217,,,A*49
$GYRO,171220,173737.200,-2.500,2.750,9.562
$ACCEL,171220,173737.200,0.540,1.740,11.080
$LINEAR,171220,173737.200,-0.070,2.220,-0.740
$EULER,171220,173737.200,293.625,5.188,0.500
$GPRMC,173737.300,A,3943.7342,N,10514.5426,W,14.66,350.08,201217,,,A*4E
$GYRO,171220,173737.300,-1.062,2.062,8.125
$ACCEL,171220,173737.300,0.410,1.410,10.860
$LINEAR,171220,173737.300,-0.400,1.790,0.270
$EULER,171220,173737.300,292.812,5.188,0.625
$GPRMC,173737.400,A,3943.7345,N,10514.5428,W,14.36,348.49,201217,,,A*49
$GYRO,171220,173737.400,-2.812,0.500,7.250
$ACCEL,171220,173737.400,0.480,1.470,11.180
$LINEAR,171220,173737.400,-0.400,1.600,1.420
$EULER,171220,173737.400,292.062,5.188,0.688
$GPRMC,173737.500,A,3943.7348,N,10514.5431,W,13.86,345.01,201217,,,A*40
$GYRO,171220,173737.500,-0.312,1.375,6.250
$ACCEL,171220,173737.500,0.490,0.800,9.890
$LINEAR,171220,173737.500,-0.280,1.070,-0.470
$EULER,171220,173737.500,291.438,5.250,0.812
$GPRMC,173737.600,A,3943.7352,N,10514.5433,W,13.79,343.47,201217,,,A*4E
$GYRO,171220,173737.600,2.188,-0.188,4.938
$ACCEL,171220,173737.600,0.910,0.770,8.530
$LINEAR,171220,173737.600,0.020,0.860,-1.230
$EULER,171220,173737.600,290.875,5.125,0.500
$GPRMC,173737.700,A,3943.7355,N,10514.5435,W,13.57,341.95,201217,,,A*4F
$GYRO,171220,173737.700,-1.938,1.438,5.000
$ACCEL,171220,173737.700,0.550,1.340,8.810
$LINEAR,171220,173737.700,-0.290,1.390,-0.950
$EULER,171220,173737.700,290.438,5.000,0.250
$GPRMC,173737.800,A,3943.7357,N,10514.5437,W,13.29,338.75,201217,,,A*49
$GYRO,171220,173737.800,0.000,0.438,3.875
$ACCEL,171220,173737.800,0.710,1.260,10.420
$LINEAR,171220,173737.800,-0.140,1.320,0.650
$EULER,171220,173737.800,290.000,4.938,0.312
$GPRMC,173737.900,A,3943.7360,N,10514.5439,W,13.13,336.03,201217,,,A*44
$GYRO,171220,173737.900,-0.188,1.875,3.375
$ACCEL,171220,173737.900,0.940,0.820,12.500
$LINEAR,171220,173737.900,0.090,0.870,2.730
$EULER,171220,173737.900,289.688,4.938,0.250
$GPRMC,173738.000,A,3943.7363,N,10514.5442,W,13.13,333.64,201217,,,A*49
$GYRO,171220,173738.000,3.125,0.562,4.000
$ACCEL,171220,173738.000,1.460,1.020,7.880
$LINEAR,171220,173738.000,0.620,1.070,-1.880
$EULER,171220,173738.000,289.312,4.875,0.250
$GPRMC,173738.100,A,3943.7366,N,10514.5445,W,13.14,333.25,201217,,,A*48
$GYRO,171220,173738.100,-4.875,0.312,4.125
$ACCEL,171220,173738.100,0.620,1.030,10.810
$LINEAR,171220,173738.100,-0.200,1.080,1.040
$EULER,171220,173738.100,288.938,4.812,0.250
$GPRMC,173738.200,A,3943.7369,N,10514.5448,W,13.20,332.06,201217,,,A*4E
$GYRO,171220,173738.200,2.000,-0.188,4.312
$ACCEL,171220,173738.200,0.910,1.670,8.180
$LINEAR,171220,173738.200,0.070,1.710,-1.580
$EULER,171220,173738.200,288.562,4.875,0.188
$GPRMC,173738.300,A,3943.7372,N,10514.5452,W,13.28,330.26,201217,,,A*46
$GYRO,171220,173738.300,1.062,-0.812,4.625
$ACCEL,171220,173738.300,0.360,1.310,8.880
$LINEAR,171220,173738.300,-0.500,1.330,-0.880
$EULER,171220,173738.300,288.125,5.062,0.062
$GPRMC,173738.400,A,3943.7375,N,10514.5455,W,13.33,328.46,201217,,,A*44
$GYRO,171220,173738.400,3.250,-1.375,4.625
$ACCEL,171220,173738.400,0.610,1.590,9.190
$LINEAR,171220,173738.400,-0.260,1.610,-0.570
$EULER,171220,173738.400,287.688,5.125,0.062
$GPRMC,173738.500,A,3943.7379,N,10514.5461,W,13.48,327.68,201217,,,A*41
$GYRO,171220,173738.500,0.062,-0.812,4.438
$ACCEL,171220,173738.500,0.510,1.170,10.430
$LINEAR,171220,173738.500,-0.350,1.200,0.660
$EULER,171220,173738.500,287.250,5.062,0.188
$GPRMC,173738.600,A,3943.7381,N,10514.5464,W,13.50,325.72,201217,,,A*40
$GYRO,171220,173738.600,-1.688,3.188,4.312
$ACCEL,171220,173738.600,0.530,0.740,11.690
$LINEAR,171220,173738.600,-0.350,0.790,1.920
$EULER,171220,173738.600,286.812,5.188,0.250
$GPRMC,173738.700,A,3943.7383,N,10514.5468,W,13.55,325.05,201217,,,A*4A
$GYRO,171220,173738.700,-1.438,0.938,4.375
$ACCEL,171220,173738.700,0.470,1.430,9.260
$LINEAR,171220,173738.700,-0.410,1.480,-0.490
$EULER,171220,173738.700,286.438,5.188,0.250
$GPRMC,173738.800,A,3943.7386,N,10514.5471,W,13.56,324.32,201217,,,A*4E
$GYRO,171220,173738.800,-4.312,1.312,4.375
$ACCEL,171220,173738.800,0.460,1.300,8.350
$LINEAR,171220,173738.800,-0.420,1.310,-1.400
$EULER,171220,173738.800,286.000,5.188,0.062
$GPRMC,173738.900,A,3943.7388,N,10514.5475,W,13.56,323.43,201217,,,A*44
$GYRO,171220,173738.900,1.750,-3.812,4.375
$ACCEL,171220,173738.900,0.730,1.080,8.600
$LINEAR,171220,173738.900,-0.160,1.050,-1.160
$EULER,171220,173738.900,285.562,5.250,-0.188
$GPRMC,173739.000,A,3943.7391,N,10514.5478,W,13.57,322.67,201217,,,A*4F
$GYRO,171220,173739.000,2.000,0.250,4.188
$ACCEL,171220,173739.000,0.650,1.250,9.360
$LINEAR,171220,173739.000,-0.250,1.210,-0.390
$EULER,171220,173739.000,285.125,5.312,-0.188
$GPRMC,173739.100,A,3943.7394,N,10514.5481,W,13.58,322.49,201217,,,A*4E
$GYRO,171220,173739.100,2.625,-0.750,3.875
$ACCEL,171220,173739.100,1.000,1.420,9.860
$LINEAR,171220,173739.100,0.090,1.290,0.100
$EULER,171220,173739.100,284.750,5.312,-0.750
$GPRMC,173739.200,A,3943.7398,N,10514.5484,W,13.58,321.85,201217,,,A*47
$GYRO,171220,173739.200,-1.812,1.500,4.250
$ACCEL,171220,173739.200,0.600,0.730,11.910
$LINEAR,171220,173739.200,-0.320,0.570,2.150
$EULER,171220,173739.200,284.312,5.375,-0.938
$GPRMC,173739.300,A,3943.7401,N,10514.5487,W,13.61,320.13,201217,,,A*46
$GYRO,171220,173739.300,-1.250,1.812,4.125
$ACCEL,171220,173739.300,0.700,0.900,11.160
$LINEAR,171220,173739.300,-0.230,0.710,1.400
$EULER,171220,173739.300,283.938,5.438,-1.125
$GPRMC,173739.400,A,3943.7406,N,10514.5494,W,13.88,318.24,201217,,,A*4C
$GYRO,171220,173739.400,-0.188,-0.688,3.062
$ACCEL,171220,173739.400,0.800,0.560,7.580
$LINEAR,171220,173739.400,-0.280,0.610,-1.970
$EULER,171220,173739.400,283.562,5.500,-1.000
$GPRMC,173739.500,A,3943.7411,N,10514.5500,W,14.10,316.47,201217,,,A*4A
$GYRO,171220,173739.500,-2.688,-2.125,3.312
$ACCEL,171220,173739.500,0.510,1.400,9.090
$LINEAR,171220,173739.500,-0.550,1.430,-1.800
$EULER,171220,173739.500,283.250,5.500,-1.062
$GPRMC,173739.600,A,3943.7416,N,10514.5507,W,14.36,316.53,201217,,,A*48
$GYRO,171220,173739.600,2.062,0.188,2.938
$ACCEL,171220,173739.600,0.770,0.970,8.390
$LINEAR,171220,173739.600,-0.060,0.030,-0.230
$EULER,171220,173739.600,282.938,5.438,-1.000
$GPRMC,173739.700,A,3943.7422,N,10514.5515,W,14.60,316.52,201217,,,A*4F
$GYRO,171220,173739.700,-2.000,2.688,3.312
$ACCEL,171220,173739.700,0.520,0.870,10.490
$LINEAR,171220,173739.700,-0.350,0.330,0.610
$EULER,171220,173739.700,282.625,5.312,-0.938
$GPRMC,173739.800,A,3943.7427,N,10514.5523,W,14.67,316.37,201217,,,A*44
$GYRO,171220,173739.800,-0.750,0.500,3.438
$ACCEL,171220,173739.800,0.760,0.920,10.540
$LINEAR,171220,173739.800,-0.190,0.990,0.780
$EULER,171220,173739.800,282.312,5.312,-1.125
$GPRMC,173739.900,A,3943.7433,N,10514.5531,W,15.02,316.32,201217,,,A*44
$GYRO,171220,173739.900,1.375,-1.062,3.938
$ACCEL,171220,173739.900,0.400,1.420,10.860
$LINEAR,171220,173739.900,-0.250,1.390,0.080
$EULER,171220,173739.900,281.938,5.500,-1.250
$GPRMC,173740.000,A,3943.7439,N,10514.5541,W,15.35,314.65,201217,,,A*4A
$GYRO,171220,173740.000,3.750,-1.188,4.375
$ACCEL,171220,173740.000,0.330,1.110,10.340
$LINEAR,171220,173740.000,-0.440,1.590,-2.460
$EULER,171220,173740.000,281.562,5.562,-1.562
$GPRMC,173740.100,A,3943.7444,N,10514.5549,W,15.41,314.05,201217,,,A*4C
$GYRO,171220,173740.100,2.938,-0.688,5.125
$ACCEL,171220,173740.100,0.290,2.210,9.850
$LINEAR,171220,173740.100,-0.820,1.390,0.740
$EULER,171220,173740.100,281.062,5.688,-1.688
$GPRMC,173740.200,A,3943.7449,N,10514.5558,W,15.70,312.53,201217,,,A*45
$GYRO,171220,173740.200,1.625,3.312,6.062
$ACCEL,171220,173740.200,0.510,2.160,10.500
$LINEAR,171220,173740.200,-1.050,1.680,0.200
$EULER,171220,173740.200,280.500,5.625,-1.750
$GPRMC,173740.300,A,3943.7454,N,10514.5566,W,15.95,310.83,201217,,,A*41
$GYRO,171220,173740.300,-0.125,-1.438,6.500
$ACCEL,171220,173740.300,0.290,1.570,10.750
$LINEAR,171220,173740.300,-0.630,1.390,1.160
$EULER,171220,173740.300,279.875,5.500,-2.438
$GPRMC,173740.400,A,3943.7459,N,10514.5575,W,16.24,309.40,201217,,,A*47
$GYRO,171220,173740.400,-1.000,-0.188,6.688
$ACCEL,171220,173740.400,-0.040,2.040,10.420
$LINEAR,171220,173740.400,-1.020,1.630,0.670
$EULER,171220,173740.400,279.250,5.500,-2.625
$GPRMC,173740.500,A,3943.7464,N,10514.5584,W,16.51,308.24,201217,,,A*47
$GYRO,171220,173740.500,-1.688,-0.625,6.875
$ACCEL,171220,173740.500,0.080,2.320,9.570
$LINEAR,171220,173740.500,-0.850,1.840,-0.170
$EULER,171220,173740.500,278.625,5.438,-2.750
$GPRMC,173740.600,A,3943.7469,N,10514.5593,W,16.76,307.76,201217,,,A*42
$GYRO,171220,173740.600,-1.562,-0.312,7.312
$ACCEL,171220,173740.600,0.030,1.990,9.560
$LINEAR,171220,173740.600,-0.920,1.550,-0.180
$EULER,171220,173740.600,277.938,5.625,-2.562
$GPRMC,173740.700,A,3943.7473,N,10514.5602,W,16.93,307.16,201217,,,A*4E
$GYRO,171220,173740.700,-0.750,-0.875,7.125
$ACCEL,171220,173740.700,0.240,1.730,8.790
$LINEAR,171220,173740.700,-0.640,1.190,-0.960
$EULER,171220,173740.700,277.375,5.188,-3.188
$GPRMC,173740.800,A,3943.7478,N,10514.5610,W,17.13,306.57,201217,,,A*44
$GYRO,171220,173740.800,-4.625,1.250,7.625
$ACCEL,171220,173740.800,-0.080,1.540,12.340
$LINEAR,171220,173740.800,-0.990,1.030,2.590
$EULER,171220,173740.800,276.688,5.312,-3.000
$GPRMC,173740.900,A,3943.7482,N,10514.5619,W,17.37,306.01,201217,,,A*4C
$GYRO,171220,173740.900,0.688,-1.125,6.750
$ACCEL,171220,173740.900,0.100,1.640,10.220
$LINEAR,171220,173740.900,-0.830,1.140,0.470
$EULER,171220,173740.900,276.000,5.500,-2.938
$GPRMC,173741.000,A,3943.7486,N,10514.5628,W,17.64,305.81,201217,,,A*4F
$GYRO,171220,173741.000,2.188,-3.250,6.375
$ACCEL,171220,173741.000,0.380,2.790,7.520
$LINEAR,171220,173741.000,-0.580,2.300,-2.220
$EULER,171220,173741.000,275.375,5.625,-2.875
$GPRMC,173741.100,A,3943.7490,N,10514.5636,W,17.70,305.71,201217,,,A*4C
$GYRO,171220,173741.100,-0.062,2.375,7.188
$ACCEL,171220,173741.100,0.380,1.300,9.790
$LINEAR,171220,173741.100,-0.580,0.820,0.040
$EULER,171220,173741.100,274.688,5.688,-2.750
$GPRMC,173741.200,A,3943.7495,N,10514.5644,W,17.98,305.69,201217,,,A*40
$GYRO,171220,173741.200,-2.000,-2.938,7.000
$ACCEL,171220,173741.200,0.330,1.950,11.080
$LINEAR,171220,173741.200,-0.660,1.480,1.340
$EULER,171220,173741.200,274.000,5.812,-2.750
$GPRMC,173741.300,A,3943.7498,N,10514.5651,W,18.22,305.58,201217,,,A*44
$GYRO,171220,173741.300,0.562,0.438,6.688
$ACCEL,171220,173741.300,0.520,1.510,10.690
$LINEAR,171220,173741.300,-0.480,1.050,0.950
$EULER,171220,173741.300,273.375,5.938,-2.688
$GPRMC,173741.400,A,3943.7501,N,10514.5659,W,18.45,305.16,201217,,,A*41
$GYRO,171220,173741.400,3.625,-1.688,7.312
$ACCEL,171220,173741.400,-0.100,2.240,7.830
$LINEAR,171220,173741.400,-1.140,1.770,-1.900
$EULER,171220,173741.400,272.688,6.000,-2.750
