
$GPRMC,000644.400,A,3950.5738,N,10502.1567,W,0.01,128.87,131217,,,A*79
$GPRMC,000644.600,A,3950.5738,N,10502.1567,W,0.00,337.69,131217,,,A*76
$GPGGA,000644.800,3950.5738,N,10502.1567,W,1,06,1.58,1665.3,M,-20.9,M,,*6E
$GPRMC,000644.800,A,3950.5738,N,10502.1567,W,0.01,199.34,131217$GPRMC,000645.000,A,3950.5738,N,10502.1567,W,0.00,174.0
$GPRMC,000645.200,A,3950.5738,N,10502.1567,W,0.01,331.59,131217,,,A*77
$GPRMC,000645.400,A,3950.5738,N,10502.1567,W,0.00,74.09,131217,,,A*47
$GPRMC,000645.600,A,3950.5738,N,10502.1567,W,0.01,221.70,131217,,,A*78
$GPGGA,000645.800,3950.5738,N,10502.1567,W,1,07,1.52,1665.3,M,-20.9,M,,*64
$GPRMC,000645.800,A,3950.5738,N,10502.1567,W,0.01,112.32,131217$GPRMC,000646.000,A,3950.5738,N,10502.1567,W,0.00,32.77
$GPRMC,000646.200,A,3950.5738,N,10502.1567,W,0.01,95.85,131217,,,A*48
$GPRMC,000646.400,A,3950.5738,N,10502.1567,W,0.01,98.11,131217,,,A*4E
$GPRMC,000646.600,A,3950.5738,N,10502.1567,W,0.01,92.48,131217,,,A*4A
$GPGGA,000646.800,3950.5738,N,10502.1567,W,1,06,1.59,1665.3,M,-20.9,M,,*6D
$GPRMC,000646.800,A,3950.5738,N,10502.1567,W,0.00,0.00,131217,,$GPRMC,000647.000,A,3950.5738,N,10502.1567,W,0.00,0.00,
$GPRMC,000647.200,A,3950.5738,N,10502.1567,W,0.00,0.00,131217,,,A*79
$GPRMC,000647.400,A,3950.5738,N,10502.1567,W,0.00,0.00,131217,,,A*7F
$GPRMC,000647.600,A,3950.5738,N,10502.1567,W,0.00,250.60,131217,,,A*7C
$GPGGA,000647.800,3950.5738,N,10502.1567,W,1,06,1.59,1665.3,M,-20.9,M,,*6C
$GPRMC,000647.800,A,3950.5738,N,10502.1567,W,0.01,248.92,131217$GPRMC,000648.000,A,3950.5738,N,10502.1568,W,0.07,240.9
$GPRMC,000648.200,A,3950.5738,N,10502.1568,W,0.17,234.99,131217,,,A*7A
$GPRMC,000648.400,A,3950.5738,N,10502.1568,W,0.25,238.61,131217,,,A*76
$GPRMC,000648.600,A,3950.5738,N,10502.1568,W,0.41,241.49,131217,,,A*72
$GPGGA,000648.800,3950.5738,N,10502.1568,W,1,07,1.27,1665.3,M,-20.9,M,,*64
$GPRMC,000648.800,A,3950.5738,N,10502.1568,W,0.66,238.26,131217$GPRMC,000649.000,A,3950.5738,N,10502.1569,W,0.80,238.6
$GPRMC,000649.200,A,3950.5737,N,10502.1571,W,1.81,239.30,131217,,,A*7C
$GPRMC,000649.400,A,3950.5736,N,10502.1574,W,3.47,243.86,131217,,,A*76
$GPRMC,000649.600,A,3950.5735,N,10502.1578,W,5.27,247.24,131217,,,A*77
$GPGGA,000649.800,3950.5734,N,10502.1584,W,1,07,1.52,1665.4,M,-20.9,M,,*6E
$GPRMC,000649.800,A,3950.5734,N,10502.1584,W,6.80,251.08,131217$GPRMC,000650.000,A,3950.5733,N,10502.1591,W,7.95,256.4
$GPRMC,000650.200,A,3950.5732,N,10502.1598,W,8.63,257.20,131217,,,A*7A
$GPRMC,000650.400,A,3950.5731,N,10502.1605,W,8.86,258.06,131217,,,A*78
$GPRMC,000650.600,A,3950.5731,N,10502.1613,W,9.51,259.53,131217,,,A*77
$GPGGA,000650.800,3950.5730,N,10502.1621,W,1,07,1.52,1665.4,M,-20.9,M,,*6E
$GPRMC,000650.800,A,3950.5730,N,10502.1621,W,10.05,261.70,13121$GPRMC,000651.000,A,3950.5730,N,10502.1629,W,10.12,263.
$GPRMC,000651.200,A,3950.5729,N,10502.1639,W,10.37,264.92,131217,,,A*48
$GPRMC,000651.400,A,3950.5728,N,10502.1648,W,10.43,265.56,131217,,,A*43
$GPRMC,000651.600,A,3950.5728,N,10502.1657,W,10.61,266.27,131217,,,A*4A
$GPGGA,000651.800,3950.5727,N,10502.1666,W,1,07,1.52,1665.3,M,-20.9,M,,*6D
$GPRMC,000651.800,A,3950.5727,N,10502.1666,W,10.68,267.30,13121$GPRMC,000652.000,A,3950.5727,N,10502.1676,W,10.86,267.
$GPRMC,000652.200,A,3950.5727,N,10502.1685,W,11.17,268.18,131217,,,A*4F
$GPRMC,000652.400,A,3950.5727,N,10502.1695,W,11.23,268.70,131217,,,A*41
$GPRMC,000652.600,A,3950.5727,N,10502.1706,W,11.74,268.83,131217,,,A*46
$GPGGA,000652.800,3950.5727,N,10502.1716,W,1,07,1.52,1665.4,M,-20.9,M,,*6F
$GPRMC,000652.800,A,3950.5727,N,10502.1716,W,12.05,269.05,13121$GPRMC,000653.000,A,3950.5727,N,10502.1727,W,12.34,268.
$GPRMC,000653.200,A,3950.5727,N,10502.1737,W,12.39,268.74,131217,,,A*43
$GPRMC,000653.400,A,3950.5727,N,10502.1747,W,12.60,268.15,131217,,,A*49
$GPRMC,000653.600,A,3950.5727,N,10502.1758,W,12.78,267.52,131217,,,A*40
$GPGGA,000653.800,3950.5727,N,10502.1769,W,1,07,1.52,1665.4,M,-20.9,M,,*66
$GPRMC,000653.800,A,3950.5727,N,10502.1769,W,13.01,267.52,13121$GPRMC,000654.000,A,3950.5727,N,10502.1780,W,13.26,267.
$GPRMC,000654.200,A,3950.5727,N,10502.1791,W,13.32,267.55,131217,,,A*4E
$GPRMC,000654.400,A,3950.5727,N,10502.1801,W,13.35,267.32,131217,,,A*48
$GPRMC,000654.600,A,3950.5727,N,10502.1812,W,13.38,267.32,131217,,,A*45
$GPGGA,000654.800,3950.5727,N,10502.1823,W,1,07,1.27,1665.4,M,-20.9,M,,*62
$GPRMC,000654.800,A,3950.5727,N,10502.1823,W,13.56,267.95,13121$GPRMC,000655.000,A,3950.5727,N,10502.1835,W,13.77,268.
$GPRMC,000655.200,A,3950.5727,N,10502.1847,W,13.94,269.37,131217,,,A*4D
$GPRMC,000655.400,A,3950.5727,N,10502.1858,W,13.95,269.49,131217,,,A*4D
$GPRMC,000655.600,A,3950.5728,N,10502.1870,W,13.93,269.82,131217,,,A*4B
$GPGGA,000655.800,3950.5728,N,10502.1881,W,1,07,1.52,1665.5,M,-20.9,M,,*67
$GPRMC,000655.800,A,3950.5728,N,10502.1881,W,13.88,269.93,13121$GPRMC,000656.000,A,3950.5728,N,10502.1892,W,13.84,270.
$GPRMC,000656.200,A,3950.5728,N,10502.1903,W,13.82,270.38,131217,,,A*40
$GPRMC,000656.400,A,3950.5728,N,10502.1914,W,13.80,270.75,131217,,,A*4B
$GPRMC,000656.600,A,3950.5728,N,10502.1925,W,13.79,270.84,131217,,,A*43
$GPGGA,000656.800,3950.5728,N,10502.1936,W,1,07,1.52,1665.6,M,-20.9,M,,*6A
$GPRMC,000656.800,A,3950.5728,N,10502.1936,W,13.80,271.20,13121$GPRMC,000657.000,A,3950.5728,N,10502.1946,W,13.80,271.
$GPRMC,000657.200,A,3950.5727,N,10502.1957,W,13.76,271.60,131217,,,A*48
$GPRMC,000657.400,A,3950.5725,N,10502.1972,W,13.58,271.60,131217,,,A*47
$GPRMC,000657.600,A,3950.5723,N,10502.1986,W,13.57,271.70,131217,,,A*46
$GPGGA,000657.800,3950.5721,N,10502.2001,W,1,07,1.52,1665.7,M,-20.9,M,,*6D
$GPRMC,000657.800,A,3950.5721,N,10502.2001,W,13.55,271.85,13121$GPRMC,000658.000,A,3950.5720,N,10502.2015,W,13.52,271.
$GPRMC,000658.200,A,3950.5719,N,10502.2027,W,13.45,271.78,131217,,,A*4E
$GPRMC,000658.400,A,3950.5718,N,10502.2039,W,13.25,271.45,131217,,,A*4E
$GPRMC,000658.600,A,3950.5718,N,10502.2052,W,13.20,271.33,131217,,,A*45
$GPGGA,000658.800,3950.5718,N,10502.2064,W,1,07,1.52,1665.8,M,-20.9,M,,*64
$GPRMC,000658.800,A,3950.5718,N,10502.2064,W,13.03,271.30,13121$GPRMC,000659.000,A,3950.5717,N,10502.2075,W,12.99,271.
$GPRMC,000659.200,A,3950.5717,N,10502.2087,W,12.94,270.86,131217,,,A*46
$GPRMC,000659.400,A,3950.5717,N,10502.2098,W,12.90,270.62,131217,,,A*40
$GPRMC,000659.600,A,3950.5718,N,10502.2109,W,12.73,270.64,131217,,,A*4F
$GPGGA,000659.800,3950.5718,N,10502.2119,W,1,07,1.52,1665.9,M,-20.9,M,,*6F
$GPRMC,000659.800,A,3950.5718,N,10502.2119,W,12.50,270.38,13121$GPRMC,000700.000,A,3950.5718,N,10502.2129,W,12.28,270.
$GPRMC,000700.200,A,3950.5719,N,10502.2139,W,12.10,270.64,131217,,,A*41
$GPRMC,000700.400,A,3950.5719,N,10502.2148,W,11.81,270.61,131217,,,A*4F
$GPRMC,000700.600,A,3950.5720,N,10502.2157,W,11.57,271.33,131217,,,A*44
$GPGGA,000700.800,3950.5721,N,10502.2164,W,1,07,1.52,1666.0,M,-20.9,M,,*68
$GPRMC,000700.800,A,3950.5721,N,10502.2164,W,11.30,272.31,13121$GPRMC,000701.000,A,3950.5721,N,10502.2173,W,11.10,273.
$GPRMC,000701.200,A,3950.5722,N,10502.2181,W,10.92,273.56,131217,,,A*41
$GPRMC,000701.400,A,3950.5722,N,10502.2189,W,10.85,272.75,131217,,,A*49
$GPRMC,000701.600,A,3950.5722,N,10502.2196,W,10.61,272.19,131217,,,A*45
$GPGGA,000701.800,3950.5723,N,10502.2201,W,1,07,1.52,1665.9,M,-20.9,M,,*61
$GPRMC,000701.800,A,3950.5723,N,10502.2201,W,10.25,268.84,13121$GPRMC,000702.000,A,3950.5723,N,10502.2206,W,10.21,267.
$GPRMC,000702.200,A,3950.5724,N,10502.2212,W,10.20,266.99,131217,,,A*43
$GPRMC,000702.400,A,3950.5723,N,10502.2220,W,10.20,266.39,131217,,,A*49
$GPRMC,000702.600,A,3950.5722,N,10502.2227,W,10.20,263.69,131217,,,A*4D
$GPGGA,000702.800,3950.5721,N,10502.2234,W,1,07,1.27,1665.8,M,-20.9,M,,*65
$GPRMC,000702.800,A,3950.5721,N,10502.2234,W,10.17,259.97,13121$GPRMC,000703.000,A,3950.5719,N,10502.2241,W,10.01,257.
$GPRMC,000703.200,A,3950.5718,N,10502.2247,W,9.78,254.68,131217,,,A*77
$GPRMC,000703.400,A,3950.5716,N,10502.2253,W,9.80,252.67,131217,,,A*74
$GPRMC,000703.600,A,3950.5716,N,10502.2255,W,9.84,248.33,131217,,,A*7E
$GPGGA,000703.800,3950.5714,N,10502.2259,W,1,07,1.52,1665.7,M,-20.9,M,,*64
$GPRMC,000703.800,A,3950.5714,N,10502.2259,W,10.01,245.44,13121$GPRMC,000704.000,A,3950.5711,N,10502.2263,W,10.02,242.
$GPRMC,000704.200,A,3950.5708,N,10502.2264,W,10.26,237.67,131217,,,A*49
$GPRMC,000704.400,A,3950.5705,N,10502.2267,W,10.29,235.69,131217,,,A*42
$GPRMC,000704.600,A,3950.5701,N,10502.2272,W,10.49,232.37,131217,,,A*4A
$GPGGA,000704.800,3950.5695,N,10502.2277,W,1,07,1.52,1665.4,M,-20.9,M,,*64
$GPRMC,000704.800,A,3950.5695,N,10502.2277,W,10.68,227.19,13121$GPRMC,000705.000,A,3950.5690,N,10502.2283,W,10.67,224.
$GPRMC,000705.200,A,3950.5686,N,10502.2288,W,10.64,223.48,131217,,,A*43
$GPRMC,000705.400,A,3950.5680,N,10502.2292,W,10.62,220.22,131217,,,A*41
$GPRMC,000705.600,A,3950.5674,N,10502.2294,W,10.28,214.48,131217,,,A*4B
$GPGGA,000705.800,3950.5668,N,10502.2297,W,1,07,1.27,1665.3,M,-20.9,M,,*6C
$GPRMC,000705.800,A,3950.5668,N,10502.2297,W,10.22,209.54,13121$GPRMC,000706.000,A,3950.5662,N,10502.2301,W,10.20,206.
$GPRMC,000706.200,A,3950.5656,N,10502.2301,W,10.13,200.49,131217,,,A*4D
$GPRMC,000706.400,A,3950.5650,N,10502.2303,W,10.10,198.65,131217,,,A*40
$GPRMC,000706.600,A,3950.5644,N,10502.2304,W,10.04,195.95,131217,,,A*47
$GPGGA,000706.800,3950.5639,N,10502.2305,W,1,07,1.52,1665.3,M,-20.9,M,,*63
$GPRMC,000706.800,A,3950.5639,N,10502.2305,W,9.65,193.25,131217$GPRMC,000707.000,A,3950.5633,N,10502.2305,W,9.30,189.0
$GPRMC,000707.200,A,3950.5628,N,10502.2305,W,9.29,185.41,131217,,,A*76
$GPRMC,000707.400,A,3950.5622,N,10502.2305,W,9.30,182.98,131217,,,A*71
$GPRMC,000707.600,A,3950.5616,N,10502.2304,W,9.47,179.15,131217,,,A*74
$GPGGA,000707.800,3950.5610,N,10502.2302,W,1,07,1.27,1665.2,M,-20.9,M,,*6D
$GPRMC,000707.800,A,3950.5610,N,10502.2302,W,9.51,174.83,131217$GPRMC,000708.000,A,3950.5604,N,10502.2300,W,9.75,170.3
$GPRMC,000708.200,A,3950.5598,N,10502.2298,W,9.94,167.12,131217,,,A*78
$GPRMC,000708.400,A,3950.5592,N,10502.2296,W,10.15,165.03,131217,,,A*49
$GPRMC,000708.600,A,3950.5586,N,10502.2294,W,10.22,163.63,131217,,,A*48
$GPGGA,000708.800,3950.5580,N,10502.2292,W,1,07,1.52,1665.1,M,-20.9,M,,*61
$GPRMC,000708.800,A,3950.5580,N,10502.2292,W,10.43,161.65,13121$GPRMC,000709.000,A,3950.5575,N,10502.2289,W,10.47,157.
$GPRMC,000709.200,A,3950.5570,N,10502.2286,W,10.53,154.31,131217,,,A*42
$GPRMC,000709.400,A,3950.5565,N,10502.2281,W,10.77,152.14,131217,,,A*40
$GPRMC,000709.600,A,3950.5561,N,10502.2276,W,10.73,148.78,131217,,,A*4B
$GPGGA,000709.800,3950.5558,N,10502.2272,W,1,07,1.52,1664.9,M,-20.9,M,,*62
$GPRMC,000709.800,A,3950.5558,N,10502.2272,W,10.68,146.67,13121$GPRMC,000710.000,A,3950.5554,N,10502.2265,W,10.45,142.
$GPRMC,000710.200,A,3950.5552,N,10502.2259,W,10.42,138.87,131217,,,A*4F
$GPRMC,000710.400,A,3950.5548,N,10502.2254,W,10.44,136.08,131217,,,A*40
$GPRMC,000710.600,A,3950.5544,N,10502.2249,W,10.49,132.39,131217,,,A*49
$GPGGA,000710.800,3950.5544,N,10502.2240,W,1,07,1.52,1664.8,M,-20.9,M,,*67
$GPRMC,000710.800,A,3950.5544,N,10502.2240,W,10.53,128.53,13121$GPRMC,000711.000,A,3950.5543,N,10502.2232,W,10.57,126.
$GPRMC,000711.200,A,3950.5541,N,10502.2224,W,10.59,124.12,131217,,,A*4D
$GPRMC,000711.400,A,3950.5539,N,10502.2216,W,10.62,122.30,131217,,,A*4B
$GPRMC,000711.600,A,3950.5536,N,10502.2209,W,10.60,119.92,131217,,,A*4A
$GPGGA,000711.800,3950.5534,N,10502.2202,W,1,07,1.52,1664.7,M,-20.9,M,,*68
$GPRMC,000711.800,A,3950.5534,N,10502.2202,W,10.57,117.77,13121$GPRMC,000712.000,A,3950.5531,N,10502.2194,W,10.38,116.
$GPRMC,000712.200,A,3950.5529,N,10502.2186,W,10.37,115.45,131217,,,A*43
$GPRMC,000712.400,A,3950.5526,N,10502.2178,W,10.37,114.36,131217,,,A*4E
$GPRMC,000712.600,A,3950.5525,N,10502.2169,W,10.40,112.85,131217,,,A*41
$GPGGA,000712.800,3950.5524,N,10502.2159,W,1,07,1.52,1664.7,M,-20.9,M,,*67
$GPRMC,000712.800,A,3950.5524,N,10502.2159,W,10.46,111.61,13121$GPRMC,000713.000,A,3950.5522,N,10502.2148,W,10.70,110.
$GPRMC,000713.200,A,3950.5520,N,10502.2137,W,10.77,109.87,131217,,,A*46
$GPRMC,000713.400,A,3950.5519,N,10502.2127,W,10.83,109.36,131217,,,A*4A
$GPRMC,000713.600,A,3950.5516,N,10502.2117,W,11.03,108.86,131217,,,A*47
$GPGGA,000713.800,3950.5514,N,10502.2106,W,1,07,1.52,1664.8,M,-20.9,M,,*60
$GPRMC,000713.800,A,3950.5514,N,10502.2106,W,11.28,108.32,13121$GPRMC,000714.000,A,3950.5511,N,10502.2096,W,11.52,107.
$GPRMC,000714.200,A,3950.5509,N,10502.2086,W,11.69,107.39,131217,,,A*44
$GPRMC,000714.400,A,3950.5506,N,10502.2076,W,11.76,107.34,131217,,,A*41
$GPRMC,000714.600,A,3950.5504,N,10502.2065,W,12.09,107.04,131217,,,A*4B
$GPGGA,000714.800,3950.5501,N,10502.2055,W,1,07,1.52,1664.8,M,-20.9,M,,*64
$GPRMC,000714.800,A,3950.5501,N,10502.2055,W,12.29,106.90,13121$GPRMC,000715.000,A,3950.5498,N,10502.2045,W,12.51,106.
$GPRMC,000715.200,A,3950.5496,N,10502.2034,W,12.77,106.66,131217,,,A*4C
$GPRMC,000715.400,A,3950.5493,N,10502.2024,W,12.84,106.47,131217,,,A*41
$GPRMC,000715.600,A,3950.5491,N,10502.2014,W,13.03,106.26,131217,,,A*4B
$GPGGA,000715.800,3950.5488,N,10502.2004,W,1,07,1.52,1664.8,M,-20.9,M,,*61
$GPRMC,000715.800,A,3950.5488,N,10502.2004,W,13.27,106.43,13121$GPRMC,000716.000,A,3950.5484,N,10502.1989,W,13.31,106.
$GPRMC,000716.200,A,3950.5481,N,10502.1976,W,13.57,106.15,131217,,,A*42
$GPRMC,000716.400,A,3950.5477,N,10502.1965,W,13.63,106.46,131217,,,A*4E
$GPRMC,000716.600,A,3950.5473,N,10502.1954,W,13.83,107.05,131217,,,A*42
$GPGGA,000716.800,3950.5470,N,10502.1944,W,1,07,1.52,1664.7,M,-20.9,M,,*64
$GPRMC,000716.800,A,3950.5470,N,10502.1944,W,13.89,106.99,13121$GPRMC,000717.000,A,3950.5467,N,10502.1933,W,13.96,107.
$GPRMC,000717.200,A,3950.5464,N,10502.1923,W,14.00,107.07,131217,,,A*4F
$GPRMC,000717.400,A,3950.5461,N,10502.1913,W,14.05,107.16,131217,,,A*4A
$GPRMC,000717.600,A,3950.5458,N,10502.1902,W,14.10,107.27,131217,,,A*44
$GPGGA,000717.800,3950.5454,N,10502.1892,W,1,07,1.52,1664.6,M,-20.9,M,,*68
$GPRMC,000717.800,A,3950.5454,N,10502.1892,W,14.15,108.95,13121$GPRMC,000718.000,A,3950.5451,N,10502.1882,W,14.31,107.
$GPRMC,000718.200,A,3950.5447,N,10502.1870,W,14.48,107.58,131217,,,A*40
$GPRMC,000718.400,A,3950.5444,N,10502.1860,W,14.51,107.11,131217,,,A*41
$GPRMC,000718.600,A,3950.5440,N,10502.1849,W,14.53,107.37,131217,,,A*4A
$GPGGA,000718.800,3950.5437,N,10502.1839,W,1,07,1.27,1663.8,M,-20.9,M,,*68
$GPRMC,000718.800,A,3950.5437,N,10502.1839,W,14.57,106.98,13121$GPRMC,000719.000,A,3950.5434,N,10502.1828,W,14.57,107.
$GPRMC,000719.200,A,3950.5431,N,10502.1817,W,14.76,106.20,131217,,,A*42
$GPRMC,000719.400,A,3950.5428,N,10502.1807,W,14.69,106.84,131217,,,A*4D
$GPRMC,000719.600,A,3950.5425,N,10502.1796,W,14.70,106.30,131217,,,A*42
$GPGGA,000719.800,3950.5423,N,10502.1785,W,1,07,1.52,1663.6,M,-20.9,M,,*68
$GPRMC,000719.800,A,3950.5423,N,10502.1785,W,14.69,105.49,13121$GPRMC,000720.000,A,3950.5420,N,10502.1774,W,14.69,106.
$GPRMC,000720.200,A,3950.5417,N,10502.1763,W,14.72,106.21,131217,,,A*45
$GPRMC,000720.400,A,3950.5414,N,10502.1752,W,14.74,106.35,131217,,,A*41
$GPRMC,000720.600,A,3950.5411,N,10502.1741,W,14.78,106.57,131217,,,A*4C
$GPGGA,000720.800,3950.5409,N,10502.1730,W,1,07,1.52,1663.3,M,-20.9,M,,*61
$GPRMC,000720.800,A,3950.5409,N,10502.1730,W,14.81,106.72,13121$GPRMC,000721.000,A,3950.5406,N,10502.1719,W,14.83,106.
$GPRMC,000721.200,A,3950.5403,N,10502.1709,W,14.82,106.67,131217,,,A*40
$GPRMC,000721.400,A,3950.5400,N,10502.1698,W,14.83,106.60,131217,,,A*4A
$GPRMC,000721.600,A,3950.5398,N,10502.1688,W,14.84,106.56,131217,,,A*4D
$GPGGA,000721.800,3950.5395,N,10502.1677,W,1,07,1.52,1663.0,M,-20.9,M,,*63
$GPRMC,000721.800,A,3950.5395,N,10502.1677,W,14.85,106.23,13121$GPRMC,000722.000,A,3950.5394,N,10502.1668,W,14.83,105.
$GPRMC,000722.200,A,3950.5390,N,10502.1663,W,14.79,105.74,131217,,,A*46
$GPRMC,000722.400,A,3950.5387,N,10502.1657,W,14.75,105.33,131217,,,A*4E
$GPRMC,000722.600,A,3950.5383,N,10502.1649,W,14.71,105.12,131217,,,A*40
$GPGGA,000722.800,3950.5381,N,10502.1640,W,1,07,1.52,1662.8,M,-20.9,M,,*68
$GPRMC,000722.800,A,3950.5381,N,10502.1640,W,14.70,104.66,13121$GPRMC,000723.000,A,3950.5381,N,10502.1632,W,14.72,104.
$GPRMC,000723.200,A,3950.5383,N,10502.1620,W,14.88,103.95,131217,,,A*45
$GPRMC,000723.400,A,3950.5383,N,10502.1608,W,14.89,103.42,131217,,,A*42
$GPRMC,000723.600,A,3950.5383,N,10502.1598,W,14.92,103.02,131217,,,A*44
$GPGGA,000723.800,3950.5384,N,10502.1587,W,1,07,1.52,1662.5,M,-20.9,M,,*69
$GPRMC,000723.800,A,3950.5384,N,10502.1587,W,14.93,102.36,13121$GPRMC,000724.000,A,3950.5384,N,10502.1577,W,14.92,101.
$GPRMC,000724.200,A,3950.5382,N,10502.1568,W,14.88,100.73,131217,,,A*47
$GPRMC,000724.400,A,3950.5381,N,10502.1559,W,14.86,99.84,131217,,,A*77
$GPRMC,000724.600,A,3950.5381,N,10502.1550,W,14.81,98.59,131217,,,A*7A
$GPGGA,000724.800,3950.5380,N,10502.1540,W,1,07,1.52,1662.3,M,-20.9,M,,*67
$GPRMC,000724.800,A,3950.5380,N,10502.1540,W,14.76,97.93,131217$GPRMC,000725.000,A,3950.5378,N,10502.1530,W,14.55,97.4
$GPRMC,000725.200,A,3950.5377,N,10502.1520,W,14.48,96.67,131217,,,A*77
$GPRMC,000725.400,A,3950.5376,N,10502.1510,W,14.32,96.40,131217,,,A*7B
$GPRMC,000725.600,A,3950.5375,N,10502.1500,W,14.14,96.19,131217,,,A*73
$GPGGA,000725.800,3950.5374,N,10502.1491,W,1,07,1.52,1662.1,M,-20.9,M,,*62
$GPRMC,000725.800,A,3950.5374,N,10502.1491,W,13.92,95.96,131217$GPRMC,000726.000,A,3950.5373,N,10502.1482,W,13.71,95.8
$GPRMC,000726.200,A,3950.5373,N,10502.1472,W,13.65,95.69,131217,,,A*73
$GPRMC,000726.400,A,3950.5372,N,10502.1462,W,13.49,95.65,131217,,,A*77
$GPRMC,000726.600,A,3950.5371,N,10502.1453,W,13.24,95.93,131217,,,A*76
$GPGGA,000726.800,3950.5370,N,10502.1444,W,1,07,1.52,1662.0,M,-20.9,M,,*6C
$GPRMC,000726.800,A,3950.5370,N,10502.1444,W,12.84,96.60,131217$GPRMC,000727.000,A,3950.5369,N,10502.1435,W,12.24,97.7
$GPRMC,000727.200,A,3950.5368,N,10502.1427,W,11.63,99.11,131217,,,A*7F
$GPRMC,000727.400,A,3950.5368,N,10502.1419,W,11.32,99.14,131217,,,A*75
$GPRMC,000727.600,A,3950.5367,N,10502.1411,W,10.65,100.02,131217,,,A*45
$GPGGA,000727.800,3950.5367,N,10502.1405,W,1,07,1.52,1661.7,M,-20.9,M,,*6A
$GPRMC,000727.800,A,3950.5367,N,10502.1405,W,9.90,101.22,131217$GPRMC,000728.000,A,3950.5366,N,10502.1399,W,8.94,103.0
$GPRMC,000728.200,A,3950.5366,N,10502.1394,W,8.22,104.72,131217,,,A*7C
$GPRMC,000728.400,A,3950.5369,N,10502.1387,W,7.89,104.58,131217,,,A*71
$GPRMC,000728.600,A,3950.5373,N,10502.1382,W,7.24,105.70,131217,,,A*71
$GPGGA,000728.800,3950.5377,N,10502.1378,W,1,07,1.52,1661.3,M,-20.9,M,,*6D
$GPRMC,000728.800,A,3950.5377,N,10502.1378,W,6.49,107.48,131217$GPRMC,000729.000,A,3950.5379,N,10502.1375,W,5.64,108.7
$GPRMC,000729.200,A,3950.5380,N,10502.1374,W,4.58,111.43,131217,,,A*7C
$GPRMC,000729.400,A,3950.5381,N,10502.1373,W,4.02,109.07,131217,,,A*7A
$GPRMC,000729.600,A,3950.5383,N,10502.1371,W,3.28,113.34,131217,,,A*7C
$GPGGA,000729.800,3950.5383,N,10502.1371,W,1,07,1.27,1660.6,M,-20.9,M,,*68
$GPRMC,000729.800,A,3950.5383,N,10502.1371,W,2.58,113.34,131217$GPRMC,000730.000,A,3950.5383,N,10502.1373,W,1.86,113.3
$GPRMC,000730.200,A,3950.5382,N,10502.1375,W,1.45,113.34,131217,,,A*7C
$GPRMC,000730.400,A,3950.5382,N,10502.1376,W,1.40,113.34,131217,,,A*7C
$GPRMC,000730.600,A,3950.5381,N,10502.1377,W,1.33,113.34,131217,,,A*78
$GPGGA,000730.800,3950.5381,N,10502.1379,W,1,07,1.27,1659.9,M,-20.9,M,,*6F
$GPRMC,000730.800,A,3950.5381,N,10502.1379,W,1.27,113.34,131217$GPRMC,000731.000,A,3950.5380,N,10502.1381,W,1.23,113.3
$GPRMC,000731.200,A,3950.5380,N,10502.1382,W,1.19,113.34,131217,,,A*7E
$GPRMC,000731.400,A,3950.5380,N,10502.1384,W,1.14,113.34,131217,,,A*73
$GPRMC,000731.600,A,3950.5380,N,10502.1385,W,1.10,113.34,131217,,,A*74
$GPGGA,000731.800,3950.5380,N,10502.1385,W,1,07,1.27,1659.5,M,-20.9,M,,*60
$GPRMC,000731.800,A,3950.5380,N,10502.1385,W,1.06,113.34,131217$GPRMC,000732.000,A,3950.5379,N,10502.1382,W,1.47,113.3
$GPRMC,000732.200,A,3950.5378,N,10502.1380,W,1.82,113.34,131217,,,A*7A
$GPRMC,000732.400,A,3950.5377,N,10502.1377,W,2.25,113.34,131217,,,A*75
$GPRMC,000732.600,A,3950.5378,N,10502.1373,W,4.07,85.85,131217,,,A*4E
$GPGGA,000732.800,3950.5379,N,10502.1370,W,1,07,1.52,1659.4,M,-20.9,M,,*6C
$GPRMC,000732.800,A,3950.5379,N,10502.1370,W,4.84,78.66,131217,$GPRMC,000733.000,A,3950.5380,N,10502.1366,W,5.82,77.55
$GPRMC,000733.200,A,3950.5382,N,10502.1363,W,6.17,72.53,131217,,,A*4F
$GPRMC,000733.400,A,3950.5384,N,10502.1359,W,6.40,69.26,131217,,,A*4C
$GPRMC,000733.600,A,3950.5387,N,10502.1356,W,6.68,63.15,131217,,,A*42
$GPGGA,000733.800,3950.5390,N,10502.1351,W,1,07,1.52,1659.1,M,-21.0,M,,*64
$GPRMC,000733.800,A,3950.5390,N,10502.1351,W,7.18,60.58,131217,$GPRMC,000734.000,A,3950.5393,N,10502.1347,W,7.39,59.72
$GPRMC,000734.200,A,3950.5396,N,10502.1342,W,7.60,57.53,131217,,,A*48
$GPRMC,000734.400,A,3950.5399,N,10502.1338,W,7.66,55.43,131217,,,A*49
$GPRMC,000734.600,A,3950.5403,N,10502.1335,W,7.74,48.99,131217,,,A*4A
$GPGGA,000734.800,3950.5408,N,10502.1333,W,1,07,1.52,1658.9,M,-21.0,M,,*68
$GPRMC,000734.800,A,3950.5408,N,10502.1333,W,8.00,42.76,131217,$GPRMC,000735.000,A,3950.5413,N,10502.1331,W,8.17,36.98
$GPRMC,000735.200,A,3950.5419,N,10502.1329,W,8.50,32.24,131217,,,A*4B
$GPRMC,000735.400,A,3950.5424,N,10502.1327,W,8.82,29.31,131217,,,A*4C
$GPRMC,000735.600,A,3950.5430,N,10502.1325,W,9.28,23.97,131217,,,A*4E
$GPGGA,000735.800,3950.5437,N,10502.1324,W,1,07,1.52,1658.8,M,-21.0,M,,*62
$GPRMC,000735.800,A,3950.5437,N,10502.1324,W,9.78,18.76,131217,$GPRMC,000736.000,A,3950.5443,N,10502.1323,W,10.27,15.3
$GPRMC,000736.200,A,3950.5450,N,10502.1322,W,10.62,12.37,131217,,,A*76
$GPRMC,000736.400,A,3950.5456,N,10502.1321,W,10.68,11.51,131217,,,A*7C
$GPRMC,000736.600,A,3950.5462,N,10502.1320,W,10.95,10.68,131217,,,A*71
$GPGGA,000736.800,3950.5469,N,10502.1319,W,1,07,1.53,1658.8,M,-21.0,M,,*65
$GPRMC,000736.800,A,3950.5469,N,10502.1319,W,11.11,10.02,131217$GPRMC,000737.000,A,3950.5476,N,10502.1319,W,11.37,8.74
$GPRMC,000737.200,A,3950.5483,N,10502.1318,W,11.71,7.89,131217,,,A*42
$GPRMC,000737.400,A,3950.5491,N,10502.1318,W,12.09,6.09,131217,,,A*42
$GPRMC,000737.600,A,3950.5499,N,10502.1319,W,12.60,4.95,131217,,,A*41
$GPGGA,000737.800,3950.5507,N,10502.1319,W,1,07,1.53,1658.8,M,-21.0,M,,*6D
$GPRMC,000737.800,A,3950.5507,N,10502.1319,W,12.79,3.43,131217,$GPRMC,000738.000,A,3950.5515,N,10502.1321,W,13.19,1.34
$GPRMC,000738.200,A,3950.5523,N,10502.1322,W,13.48,359.64,131217,,,A*4C
$GPRMC,000738.400,A,3950.5531,N,10502.1323,W,13.52,359.02,131217,,,A*43
$GPRMC,000738.600,A,3950.5540,N,10502.1327,W,13.69,358.08,131217,,,A*40
$GPGGA,000738.800,3950.5548,N,10502.1330,W,1,07,1.53,1658.9,M,-21.0,M,,*63
$GPRMC,000738.800,A,3950.5548,N,10502.1330,W,13.89,357.39,13121$GPRMC,000739.000,A,3950.5557,N,10502.1332,W,14.05,356.
$GPRMC,000739.200,A,3950.5564,N,10502.1335,W,14.03,355.85,131217,,,A*43
$GPRMC,000739.400,A,3950.5572,N,10502.1337,W,13.98,355.80,131217,,,A*40
$GPRMC,000739.600,A,3950.5580,N,10502.1339,W,13.91,355.28,131217,,,A*4A
$GPGGA,000739.800,3950.5588,N,10502.1340,W,1,07,1.53,1659.0,M,-21.0,M,,*61
$GPRMC,000739.800,A,3950.5588,N,10502.1340,W,13.75,355.22,13121$GPRMC,000740.000,A,3950.5595,N,10502.1341,W,13.45,355.
$GPRMC,000740.200,A,3950.5602,N,10502.1339,W,13.37,356.19,131217,,,A*44
$GPRMC,000740.400,A,3950.5609,N,10502.1338,W,13.21,356.80,131217,,,A*4F
$GPRMC,000740.600,A,3950.5616,N,10502.1338,W,13.02,357.21,131217,,,A*48
$GPGGA,000740.800,3950.5623,N,10502.1337,W,1,07,1.53,1659.1,M,-21.0,M,,*6C
$GPRMC,000740.800,A,3950.5623,N,10502.1337,W,12.55,357.37,13121$GPRMC,000741.000,A,3950.5629,N,10502.1337,W,12.17,357.
$GPRMC,000741.200,A,3950.5636,N,10502.1337,W,11.72,357.77,131217,,,A*46
$GPRMC,000741.400,A,3950.5642,N,10502.1337,W,11.55,357.60,131217,,,A*40
$GPRMC,000741.600,A,3950.5648,N,10502.1337,W,11.24,357.42,131217,,,A*4E
$GPGGA,000741.800,3950.5654,N,10502.1337,W,1,07,1.53,1659.2,M,-21.0,M,,*6E
$GPRMC,000741.800,A,3950.5654,N,10502.1337,W,10.95,357.14,13121$GPRMC,000742.000,A,3950.5660,N,10502.1337,W,10.74,357.
$GPRMC,000742.200,A,3950.5665,N,10502.1337,W,10.54,358.42,131217,,,A*4F
$GPRMC,000742.400,A,3950.5671,N,10502.1336,W,10.50,358.74,131217,,,A*4C
$GPRMC,000742.600,A,3950.5677,N,10502.1336,W,10.25,359.33,131217,,,A*48
$GPGGA,000742.800,3950.5682,N,10502.1336,W,1,07,1.53,1659.1,M,-21.0,M,,*64
$GPRMC,000742.800,A,3950.5682,N,10502.1336,W,9.98,359.00,131217$GPRMC,000743.000,A,3950.5688,N,10502.1336,W,9.75,358.2
$GPRMC,000743.200,A,3950.5693,N,10502.1336,W,9.69,358.07,131217,,,A*71
$GPRMC,000743.400,A,3950.5698,N,10502.1336,W,9.51,357.63,131217,,,A*7A
$GPRMC,000743.600,A,3950.5703,N,10502.1337,W,9.47,356.18,131217,,,A*70
$GPGGA,000743.800,3950.5708,N,10502.1337,W,1,07,1.53,1659.1,M,-21.0,M,,*67
$GPRMC,000743.800,A,3950.5708,N,10502.1337,W,9.43,355.58,131217$GPRMC,000744.000,A,3950.5713,N,10502.1338,W,9.21,354.0
$GPRMC,000744.200,A,3950.5718,N,10502.1339,W,9.14,352.00,131217,,,A*7C
$GPRMC,000744.400,A,3950.5723,N,10502.1341,W,8.87,349.60,131217,,,A*7A
$GPRMC,000744.600,A,3950.5727,N,10502.1346,W,8.81,341.14,131217,,,A*76
$GPGGA,000744.800,3950.5731,N,10502.1346,W,1,07,1.53,1659.0,M,-21.0,M,,*6D
$GPRMC,000744.800,A,3950.5731,N,10502.1346,W,8.26,337.84,131217$GPRMC,000745.000,A,3950.5736,N,10502.1348,W,8.05,334.9
$GPRMC,000745.200,A,3950.5740,N,10502.1350,W,7.98,332.34,131217,,,A*74
$GPRMC,000745.400,A,3950.5743,N,10502.1354,W,7.93,328.93,131217,,,A*78
$GPRMC,000745.600,A,3950.5746,N,10502.1359,W,7.93,322.69,131217,,,A*7D
$GPGGA,000745.800,3950.5748,N,10502.1363,W,1,07,1.27,1659.0,M,-20.9,M,,*6E
$GPRMC,000745.800,A,3950.5748,N,10502.1363,W,7.89,317.11,131217$GPRMC,000746.000,A,3950.5749,N,10502.1369,W,7.93,309.5
$GPRMC,000746.200,A,3950.5751,N,10502.1375,W,7.94,300.85,131217,,,A*77
$GPRMC,000746.400,A,3950.5753,N,10502.1382,W,7.98,299.55,131217,,,A*7B
$GPRMC,000746.600,A,3950.5754,N,10502.1390,W,8.50,295.39,131217,,,A*70
$GPGGA,000746.800,3950.5755,N,10502.1398,W,1,07,1.53,1658.8,M,-20.9,M,,*6F
$GPRMC,000746.800,A,3950.5755,N,10502.1398,W,9.03,291.61,131217$GPRMC,000747.000,A,3950.5755,N,10502.1402,W,9.07,288.9
$GPRMC,000747.200,A,3950.5756,N,10502.1409,W,9.02,287.13,131217,,,A*7D
$GPRMC,000747.400,A,3950.5757,N,10502.1415,W,8.96,286.58,131217,,,A*75
$GPRMC,000747.600,A,3950.5758,N,10502.1422,W,8.79,284.76,131217,,,A*73
$GPGGA,000747.800,3950.5758,N,10502.1429,W,1,07,1.27,1658.8,M,-20.9,M,,*6D
$GPRMC,000747.800,A,3950.5758,N,10502.1429,W,8.77,277.76,131217$GPRMC,000748.000,A,3950.5758,N,10502.1436,W,8.74,275.4
$GPRMC,000748.200,A,3950.5759,N,10502.1443,W,8.71,275.55,131217,,,A*79
$GPRMC,000748.400,A,3950.5759,N,10502.1449,W,8.65,275.43,131217,,,A*77
$GPRMC,000748.600,A,3950.5759,N,10502.1455,W,8.48,274.95,131217,,,A*7D
$GPGGA,000748.800,3950.5759,N,10502.1460,W,1,07,1.27,1658.8,M,-20.9,M,,*6E
$GPRMC,000748.800,A,3950.5759,N,10502.1460,W,8.17,272.56,131217$GPRMC,000749.000,A,3950.5758,N,10502.1464,W,7.66,271.2
$GPRMC,000749.200,A,3950.5758,N,10502.1467,W,7.19,271.12,131217,,,A*79
$GPRMC,000749.400,A,3950.5758,N,10502.1471,W,6.91,271.24,131217,,,A*7C
$GPRMC,000749.600,A,3950.5757,N,10502.1475,W,6.52,271.46,131217,,,A*7E
$GPGGA,000749.800,3950.5757,N,10502.1477,W,1,07,1.53,1659.0,M,-20.9,M,,*6D
$GPRMC,000749.800,A,3950.5757,N,10502.1477,W,5.88,270.62,131217$GPRMC,000750.000,A,3950.5757,N,10502.1480,W,5.41,269.9
$GPRMC,000750.200,A,3950.5757,N,10502.1482,W,4.93,270.45,131217,,,A*77
$GPRMC,000750.400,A,3950.5757,N,10502.1485,W,4.66,269.91,131217,,,A*7D
$GPRMC,000750.600,A,3950.5756,N,10502.1488,W,4.28,270.95,131217,,,A*75
$GPGGA,000750.800,3950.5756,N,10502.1490,W,1,07,1.53,1659.2,M,-20.9,M,,*6F
$GPRMC,000750.800,A,3950.5756,N,10502.1490,W,3.71,273.42,131217$GPRMC,000751.000,A,3950.5756,N,10502.1491,W,3.11,277.0
$GPRMC,000751.200,A,3950.5757,N,10502.1489,W,2.37,277.07,131217,,,A*74
$GPRMC,000751.400,A,3950.5757,N,10502.1487,W,2.06,277.07,131217,,,A*7E
$GPRMC,000751.600,A,3950.5757,N,10502.1485,W,1.45,277.07,131217,,,A*7A
$GPGGA,000751.800,3950.5756,N,10502.1483,W,1,07,1.27,1659.5,M,-20.9,M,,*68