$GPRMC,231013.000,A,3950.5728,N,10502.1855,W,2.92,279.06,191217,,,A*78
$GYRO,171219,231013.000,-0.125,+0.062,-0.062
$EULER,171219,231013.000,+278.375,-3.125,-5.750
$GPRMC,231013.100,A,3950.5721,N,10502.1843,W,2.29,272.63,191217,,,A*7F
$GYRO,171219,231013.100,+0.000,+0.000,+0.062
$EULER,171219,231013.100,+278.375,-3.125,-5.750
$GPRMC,231013.200,A,3950.5719,N,10502.1835,W,0.00,270.43,191217,,,A*7F
$GYRO,171219,231013.200,+0.125,+0.250,+0.000
$EULER,171219,231013.200,+278.375,-3.125,-5.750
$GPRMC,231013.300,A,3950.5719,N,10502.1827,W,0.00,273.81,191217,,,A*70
$GYRO,171219,231013.300,+0.250,+0.188,+0.062
$EULER,171219,231013.300,+278.375,-3.125,-5.750
$GPRMC,231013.400,A,3950.5717,N,10502.1821,W,0.00,272.20,191217,,,A*75
$GYRO,171219,231013.400,+0.250,-0.750,-0.125
$EULER,171219,231013.400,+278.375,-3.062,-5.750
$GPRMC,231013.500,A,3950.5717,N,10502.1821,W,0.00,272.20,191217,,,A*74
$GYRO,171219,231013.500,+0.062,-0.188,+0.000
$EULER,171219,231013.500,+278.375,-2.750,-5.750
$GPRMC,231013.600,A,3950.5717,N,10502.1821,W,0.00,272.20,191217,,,A*77
$GYRO,171219,231013.600,-0.125,-1.000,+0.125
$EULER,171219,231013.600,+278.375,-2.500,-5.750
$GPRMC,231013.700,A,3950.5717,N,10502.1821,W,0.00,272.20,191217,,,A*76
$GYRO,171219,231013.700,-0.562,+0.000,+0.125
$EULER,171219,231013.700,+278.375,-2.125,-5.750
$GPRMC,231013.800,A,3950.5717,N,10502.1821,W,0.00,272.20,191217,,,A*79
$GYRO,171219,231013.800,+0.250,-1.188,-0.062
$EULER,171219,231013.800,+278.312,-0.812,-5.812
$GPRMC,231013.900,A,3950.5717,N,10502.1821,W,0.00,272.20,191217,,,A*78
$GYRO,171219,231013.900,-0.312,-0.812,+0.938
$EULER,171219,231013.900,+278.250,-0.375,-5.875
$GPRMC,231014.000,A,3950.5717,N,10502.1821,W,0.00,272.20,191217,,,A*76
$GYRO,171219,231014.000,+0.500,-1.625,+0.312
$EULER,171219,231014.000,+278.125,+0.562,-5.938
$GPRMC,231014.100,A,3950.5717,N,10502.1821,W,0.00,272.20,191217,,,A*77
$GYRO,171219,231014.100,-0.625,+0.062,+1.250
$EULER,171219,231014.100,+278.000,+1.312,-5.938
$GPRMC,231014.200,A,3950.5717,N,10502.1821,W,0.00,272.20,191217,,,A*74
$GYRO,171219,231014.200,-0.688,-0.438,+0.938
$EULER,171219,231014.200,+277.875,+3.188,-5.938
$GPRMC,231014.300,A,3950.5717,N,10502.1821,W,0.00,272.20,191217,,,A*75
$GYRO,171219,231014.300,+0.500,+0.000,+1.000
$EULER,171219,231014.300,+277.688,+5.438,-5.938
$GPRMC,231014.400,A,3950.5717,N,10502.1821,W,0.00,272.20,191217,,,A*72
$GYRO,171219,231014.400,+0.312,-0.062,+0.625
$EULER,171219,231014.400,+277.500,+6.562,-5.938
$GPRMC,231014.500,A,3950.5717,N,10502.1821,W,0.00,272.20,191217,,,A*73
$GYRO,171219,231014.500,+1.500,-0.438,+0.375
$EULER,171219,231014.500,+277.438,+6.562,-6.000
$GPRMC,231014.600,A,3950.5717,N,10502.1821,W,0.00,272.20,191217,,,A*70
$GYRO,171219,231014.600,-0.812,+2.625,+2.750
$EULER,171219,231014.600,+277.250,+6.562,-6.062
$GPRMC,231014.700,A,3950.5717,N,10502.1821,W,0.00,272.20,191217,,,A*71
$GYRO,171219,231014.700,+0.750,+0.500,+2.000
$EULER,171219,231014.700,+277.125,+6.500,-6.062
$GPRMC,231014.800,A,3950.5717,N,10502.1821,W,0.00,272.20,191217,,,A*7E
$GYRO,171219,231014.800,-1.500,+1.938,+0.500
$EULER,171219,231014.800,+277.000,+6.938,-6.125
$GPRMC,231014.900,A,3950.5717,N,10502.1821,W,0.00,272.20,191217,,,A*7F
$GYRO,171219,231014.900,+0.125,+0.688,+0.062
$EULER,171219,231014.900,+277.000,+6.750,-6.188
$GPRMC,231015.000,A,3950.5717,N,10502.1821,W,0.00,272.20,191217,,,A*77
$GYRO,171219,231015.000,-0.812,+1.250,+0.250
$EULER,171219,231015.000,+277.000,+6.625,-6.062
$GPRMC,231015.100,A,3950.5717,N,10502.1821,W,0.00,272.20,191217,,,A*76
$GYRO,171219,231015.100,+0.938,-0.500,+1.000
$EULER,171219,231015.100,+276.938,+6.625,-6.125
$GPRMC,231015.200,A,3950.5717,N,10502.1821,W,0.00,272.20,191217,,,A*75
$GYRO,171219,231015.200,+0.125,-0.500,+0.438
$EULER,171219,231015.200,+276.875,+6.750,-6.188
$GPRMC,231015.300,A,3950.5717,N,10502.1821,W,0.00,272.20,191217,,,A*74
$GYRO,171219,231015.300,-0.375,+1.938,+0.562
$EULER,171219,231015.300,+276.875,+6.625,-6.188
$GPRMC,231015.400,A,3950.5717,N,10502.1821,W,0.00,272.20,191217,,,A*73
$GYRO,171219,231015.400,+1.438,-1.562,+0.625
$EULER,171219,231015.400,+276.875,+6.625,-6.250
$GPRMC,231015.500,A,3950.5717,N,10502.1821,W,0.00,272.20,191217,,,A*72
$GYRO,171219,231015.500,-1.375,+0.688,+0.125
$EULER,171219,231015.500,+276.812,+6.625,-6.250
$GPRMC,231015.600,A,3950.5717,N,10502.1821,W,0.00,272.20,191217,,,A*71
$GYRO,171219,231015.600,-1.625,+2.750,+0.625
$EULER,171219,231015.600,+276.812,+6.500,-6.125
$GPRMC,231015.700,A,3950.5717,N,10502.1821,W,0.00,272.20,191217,,,A*70
$GYRO,171219,231015.700,+1.688,-0.312,+0.438
$EULER,171219,231015.700,+276.812,+6.500,-6.188
$GPRMC,231015.800,A,3950.5717,N,10502.1821,W,0.00,272.20,191217,,,A*7F
$GYRO,171219,231015.800,+1.375,-1.500,+0.000
$EULER,171219,231015.800,+276.812,+6.562,-6.188
$GPRMC,231015.900,A,3950.5717,N,10502.1821,W,0.00,272.20,191217,,,A*7E
$GYRO,171219,231015.900,-1.062,+0.562,-0.062
$EULER,171219,231015.900,+276.812,+6.500,-6.062
$GPRMC,231016.000,A,3950.5717,N,10502.1821,W,0.00,272.20,191217,,,A*74
$GYRO,171219,231016.000,+0.438,+0.438,-0.062
$EULER,171219,231016.000,+276.812,+6.562,-6.062
$GPRMC,231016.100,A,3950.5717,N,10502.1821,W,0.00,272.20,191217,,,A*75
$GYRO,171219,231016.100,-0.125,-1.250,-0.062
$EULER,171219,231016.100,+276.812,+6.562,-6.062
$GPRMC,231016.200,A,3950.5717,N,10502.1821,W,0.00,272.20,191217,,,A*76
$GYRO,171219,231016.200,+0.500,+2.375,+0.125
$EULER,171219,231016.200,+276.812,+6.562,-6.125
$GPRMC,231016.300,A,3950.5717,N,10502.1821,W,0.00,272.20,191217,,,A*77
$GYRO,171219,231016.300,+1.375,-0.438,+0.375
$EULER,171219,231016.300,+276.812,+6.562,-6.250
$GPRMC,231016.400,A,3950.5717,N,10502.1821,W,0.00,272.20,191217,,,A*70
$GYRO,171219,231016.400,+2.312,-2.812,-0.062
$EULER,171219,231016.400,+276.812,+6.688,-6.375
$GPRMC,231016.500,A,3950.5717,N,10502.1821,W,0.00,272.20,191217,,,A*71
$GYRO,171219,231016.500,-0.625,+0.875,+0.250
$EULER,171219,231016.500,+276.812,+6.688,-6.438
$GPRMC,231016.600,A,3950.5717,N,10502.1821,W,0.00,272.20,191217,,,A*72
$GYRO,171219,231016.600,-0.875,+3.375,-0.250
$EULER,171219,231016.600,+276.812,+6.500,-6.375
$GPRMC,231016.700,A,3950.5717,N,10502.1821,W,0.00,272.20,191217,,,A*73
$GYRO,171219,231016.700,+0.625,-0.438,-0.125
$EULER,171219,231016.700,+276.812,+6.375,-6.375
$GPRMC,231016.800,A,3950.5717,N,10502.1821,W,0.00,272.20,191217,,,A*7C
$GYRO,171219,231016.800,-3.875,+5.062,-0.500
$EULER,171219,231016.800,+276.812,+6.125,-6.312
$GPRMC,231016.900,A,3950.5717,N,10502.1821,W,0.00,272.20,191217,,,A*7D
$GYRO,171219,231016.900,-2.562,-0.875,-0.312
$EULER,171219,231016.900,+276.812,+5.938,-6.062
$GPRMC,231017.000,A,3950.5717,N,10502.1821,W,0.00,272.20,191217,,,A*75
$GYRO,171219,231017.000,-2.625,+2.188,-0.188
$EULER,171219,231017.000,+276.812,+5.812,-5.812
$GPRMC,231017.100,A,3950.5717,N,10502.1821,W,0.00,272.20,191217,,,A*74
$GYRO,171219,231017.100,+0.562,+1.562,-1.125
$EULER,171219,231017.100,+276.875,+5.250,-5.750
$GPRMC,231017.200,A,3950.5717,N,10502.1821,W,0.00,272.20,191217,,,A*77
$GYRO,171219,231017.200,-1.688,-2.125,-0.375
$EULER,171219,231017.200,+276.938,+5.250,-5.562
$GPRMC,231017.300,A,3950.5717,N,10502.1821,W,0.00,272.20,191217,,,A*76
$GYRO,171219,231017.300,-3.312,-5.188,-0.062
$EULER,171219,231017.300,+276.938,+5.438,-5.562
$GPRMC,231017.400,A,3950.5717,N,10502.1821,W,0.00,272.20,191217,,,A*71
$GYRO,171219,231017.400,+2.438,-6.438,+0.500
$EULER,171219,231017.400,+276.938,+5.750,-5.562
$GPRMC,231017.500,A,3950.5733,N,10502.1853,W,2.03,278.90,191217,,,A*73
$GYRO,171219,231017.500,+0.875,-1.625,+0.312
$EULER,171219,231017.500,+277.000,+5.938,-5.500
$GPRMC,231017.600,A,3950.5733,N,10502.1855,W,2.09,278.83,191217,,,A*7E
$GYRO,171219,231017.600,-0.875,+2.312,-0.750
$EULER,171219,231017.600,+277.000,+5.875,-5.500
$GPRMC,231017.700,A,3950.5732,N,10502.1857,W,2.15,278.81,191217,,,A*73
$GYRO,171219,231017.700,+3.250,+3.250,-0.438
$EULER,171219,231017.700,+276.938,+5.562,-5.750
$GPRMC,231017.800,A,3950.5732,N,10502.1859,W,2.20,278.82,191217,,,A*77
$GYRO,171219,231017.800,-0.250,-0.188,-1.125
$EULER,171219,231017.800,+277.000,+4.938,-5.750
$GPRMC,231017.900,A,3950.5732,N,10502.1861,W,2.26,278.82,191217,,,A*7B
$GYRO,171219,231017.900,+0.125,+0.625,-0.375
$EULER,171219,231017.900,+277.062,+4.625,-5.688
$GPRMC,231018.000,A,3950.5732,N,10502.1863,W,2.34,278.74,191217,,,A*75
$GYRO,171219,231018.000,-1.688,+2.125,-0.438
$EULER,171219,231018.000,+277.000,+4.562,-5.750
$GPRMC,231018.100,A,3950.5732,N,10502.1865,W,2.41,279.28,191217,,,A*78
$GYRO,171219,231018.100,+1.875,+3.125,-0.438
$EULER,171219,231018.100,+277.062,+4.375,-5.875
$GPRMC,231018.200,A,3950.5732,N,10502.1868,W,2.49,279.73,191217,,,A*70
$GYRO,171219,231018.200,+2.000,-5.188,-0.562
$EULER,171219,231018.200,+277.125,+4.438,-5.750
$GPRMC,231018.300,A,3950.5731,N,10502.1870,W,2.57,279.94,191217,,,A*7D
$GYRO,171219,231018.300,-4.250,+0.625,-0.688
$EULER,171219,231018.300,+277.125,+4.375,-5.500
$GPRMC,231018.400,A,3950.5731,N,10502.1873,W,2.63,280.31,191217,,,A*77
$GYRO,171219,231018.400,+0.875,-1.250,-0.438
$EULER,171219,231018.400,+277.125,+4.375,-5.562
$GPRMC,231018.500,A,3950.5731,N,10502.1875,W,2.68,280.62,191217,,,A*7D
$GYRO,171219,231018.500,+1.250,+3.125,-1.000
$EULER,171219,231018.500,+277.250,+4.188,-5.625
$GPRMC,231018.600,A,3950.5731,N,10502.1878,W,2.73,280.92,191217,,,A*76
$GYRO,171219,231018.600,+1.125,+0.812,-1.438
$EULER,171219,231018.600,+277.312,+4.000,-5.562
$GPRMC,231018.700,A,3950.5731,N,10502.1881,W,2.79,281.25,191217,,,A*76
$GYRO,171219,231018.700,+1.188,+0.688,-0.688
$EULER,171219,231018.700,+277.438,+4.000,-5.500
$GPRMC,231018.800,A,3950.5729,N,10502.1886,W,2.99,276.88,191217,,,A*76
$GYRO,171219,231018.800,+2.188,+1.188,-1.000
$EULER,171219,231018.800,+277.438,+3.938,-5.688
$GPRMC,231018.900,A,3950.5727,N,10502.1894,W,3.47,272.85,191217,,,A*71
$GYRO,171219,231018.900,+0.688,-3.938,-0.250
$EULER,171219,231018.900,+277.562,+4.125,-5.938
$GPRMC,231019.000,A,3950.5726,N,10502.1901,W,3.95,269.98,191217,,,A*7C
$GYRO,171219,231019.000,-1.250,+0.500,-0.812
$EULER,171219,231019.000,+277.562,+4.375,-6.000
$GPRMC,231019.100,A,3950.5725,N,10502.1905,W,4.08,270.05,191217,,,A*75
$GYRO,171219,231019.100,+4.562,-1.875,-0.188
$EULER,171219,231019.100,+277.625,+4.500,-6.250
$GPRMC,231019.200,A,3950.5724,N,10502.1910,W,4.54,267.13,191217,,,A*7B
$GYRO,171219,231019.200,+4.188,-3.875,-0.750
$EULER,171219,231019.200,+277.625,+4.500,-6.562
$GPRMC,231019.300,A,3950.5722,N,10502.1915,W,5.00,264.34,191217,,,A*7F
$GYRO,171219,231019.300,-4.375,+0.500,-1.750
$EULER,171219,231019.300,+277.750,+4.438,-6.438
$GPRMC,231019.400,A,3950.5718,N,10502.1920,W,5.55,260.47,191217,,,A*77
$GYRO,171219,231019.400,-2.500,+2.750,-0.938
$EULER,171219,231019.400,+277.938,+4.375,-6.250
$GPRMC,231019.500,A,3950.5716,N,10502.1925,W,5.89,258.81,191217,,,A*7D
$GYRO,171219,231019.500,+0.562,+2.625,-0.750
$EULER,171219,231019.500,+278.000,+4.250,-6.312
$GPRMC,231019.600,A,3950.5715,N,10502.1929,W,6.26,257.72,191217,,,A*74
$GYRO,171219,231019.600,+0.750,+1.812,-1.625
$EULER,171219,231019.600,+278.125,+3.625,-6.375
$GPRMC,231019.700,A,3950.5714,N,10502.1934,W,6.62,257.07,191217,,,A*7A
$GYRO,171219,231019.700,-1.500,+3.875,-1.500
$EULER,171219,231019.700,+278.250,+3.312,-6.375
$GPRMC,231019.800,A,3950.5713,N,10502.1938,W,7.00,256.48,191217,,,A*71
$GYRO,171219,231019.800,-0.250,+5.750,-1.000
$EULER,171219,231019.800,+278.375,+2.938,-6.375
$GPRMC,231019.900,A,3950.5712,N,10502.1944,W,7.39,256.41,191217,,,A*79
$GYRO,171219,231019.900,+1.312,-2.875,-0.688
$EULER,171219,231019.900,+278.438,+2.812,-6.312
$GPRMC,231020.000,A,3950.5712,N,10502.1950,W,7.76,256.65,191217,,,A*72
$GYRO,171219,231020.000,+3.062,+0.312,-0.125
$EULER,171219,231020.000,+278.438,+2.812,-6.375
$GPRMC,231020.100,A,3950.5711,N,10502.1955,W,7.93,257.25,191217,,,A*7B
$GYRO,171219,231020.100,+0.750,-2.000,+0.375
$EULER,171219,231020.100,+278.438,+2.875,-6.500
$GPRMC,231020.200,A,3950.5711,N,10502.1960,W,8.22,257.92,191217,,,A*77
$GYRO,171219,231020.200,-2.062,-2.312,+0.938
$EULER,171219,231020.200,+278.375,+3.188,-6.500
$GPRMC,231020.300,A,3950.5711,N,10502.1966,W,8.54,258.35,191217,,,A*73
$GYRO,171219,231020.300,-0.438,-1.750,+1.250
$EULER,171219,231020.300,+278.312,+3.000,-6.500
$GPRMC,231020.400,A,3950.5711,N,10502.1971,W,8.87,258.53,191217,,,A*7C
$GYRO,171219,231020.400,+1.312,+0.000,+0.750
$EULER,171219,231020.400,+278.188,+2.875,-6.562
$GPRMC,231020.500,A,3950.5711,N,10502.1977,W,9.18,258.77,191217,,,A*7A
$GYRO,171219,231020.500,+4.375,+1.312,+0.938
$EULER,171219,231020.500,+278.062,+2.688,-6.688
$GPRMC,231020.600,A,3950.5710,N,10502.1983,W,9.53,258.63,191217,,,A*79
$GYRO,171219,231020.600,+1.250,-3.188,+1.500
$EULER,171219,231020.600,+277.938,+2.688,-6.688
$GPRMC,231020.700,A,3950.5710,N,10502.1989,W,9.82,258.53,191217,,,A*7D
$GYRO,171219,231020.700,+0.188,+1.062,+1.125
$EULER,171219,231020.700,+277.875,+2.625,-6.625
$GPRMC,231020.800,A,3950.5710,N,10502.1995,W,10.05,258.67,191217,,,A*4F
$GYRO,171219,231020.800,-1.812,+5.688,+1.000
$EULER,171219,231020.800,+277.750,+2.375,-6.625
$GPRMC,231020.900,A,3950.5707,N,10502.2009,W,10.25,258.86,191217,,,A*4A
$GYRO,171219,231020.900,+1.188,-0.375,+1.250
$EULER,171219,231020.900,+277.625,+2.312,-6.688
$GPRMC,231021.000,A,3950.5706,N,10502.2021,W,10.45,259.02,191217,,,A*42
$GYRO,171219,231021.000,+1.938,-3.375,+1.312
$EULER,171219,231021.000,+277.500,+2.375,-6.750
$GPRMC,231021.100,A,3950.5704,N,10502.2029,W,10.48,259.03,191217,,,A*45
$GYRO,171219,231021.100,+2.812,-5.500,+2.062
$EULER,171219,231021.100,+277.312,+2.688,-6.875
$GPRMC,231021.200,A,3950.5704,N,10502.2037,W,10.52,259.26,191217,,,A*45
$GYRO,171219,231021.200,+0.812,+3.500,+1.125
$EULER,171219,231021.200,+277.188,+2.875,-7.000
$GPRMC,231021.300,A,3950.5703,N,10502.2042,W,13.70,269.20,191217,,,A*47
$GYRO,171219,231021.300,+0.688,+1.312,+1.125
$EULER,171219,231021.300,+277.062,+2.500,-6.938
$GPRMC,231021.400,A,3950.5702,N,10502.2049,W,14.25,271.43,191217,,,A*41
$GYRO,171219,231021.400,-0.438,+4.250,+1.312
$EULER,171219,231021.400,+276.938,+2.250,-6.875
$GPRMC,231021.500,A,3950.5700,N,10502.2058,W,14.53,272.19,191217,,,A*4F
$GYRO,171219,231021.500,-0.312,+2.688,+1.000
$EULER,171219,231021.500,+276.812,+2.000,-6.875
$GPRMC,231021.600,A,3950.5699,N,10502.2066,W,14.54,272.32,191217,,,A*4E
$GYRO,171219,231021.600,+0.000,-6.500,+1.500
$EULER,171219,231021.600,+276.688,+2.312,-7.000
$GPRMC,231021.700,A,3950.5699,N,10502.2074,W,14.58,272.00,191217,,,A*41
$GYRO,171219,231021.700,-0.250,+0.562,+1.375
$EULER,171219,231021.700,+276.562,+2.375,-7.062
$GPRMC,231021.800,A,3950.5698,N,10502.2082,W,14.79,272.15,191217,,,A*41
$GYRO,171219,231021.800,-2.062,+1.562,+2.062
$EULER,171219,231021.800,+276.375,+2.375,-7.000
$GPRMC,231021.900,A,3950.5698,N,10502.2090,W,14.97,272.57,191217,,,A*45
$GYRO,171219,231021.900,+1.562,+3.625,+2.688
$EULER,171219,231021.900,+276.125,+2.312,-7.125
$GPRMC,231022.000,A,3950.5697,N,10502.2098,W,15.03,273.00,191217,,,A*47
$GYRO,171219,231022.000,+3.938,+0.938,+3.562
$EULER,171219,231022.000,+275.812,+2.188,-7.438
$GPRMC,231022.100,A,3950.5697,N,10502.2105,W,15.04,272.90,191217,,,A*4C
$GYRO,171219,231022.100,+0.500,+0.062,+3.812
$EULER,171219,231022.100,+275.438,+2.375,-7.375
$GPRMC,231022.200,A,3950.5696,N,10502.2111,W,15.05,272.67,191217,,,A*42
$GYRO,171219,231022.200,-0.250,-0.438,+6.125
$EULER,171219,231022.200,+274.938,+2.500,-7.438
$GPRMC,231022.300,A,3950.5695,N,10502.2119,W,15.08,272.55,191217,,,A*44
$GYRO,171219,231022.300,-2.000,+1.500,+5.938
$EULER,171219,231022.300,+274.312,+2.688,-7.500
$GPRMC,231022.400,A,3950.5694,N,10502.2127,W,15.12,272.20,191217,,,A*46
$GYRO,171219,231022.400,-0.875,-0.312,+6.000
$EULER,171219,231022.400,+273.750,+2.750,-7.500
$GPRMC,231022.500,A,3950.5693,N,10502.2134,W,15.15,272.26,191217,,,A*43
$GYRO,171219,231022.500,-0.750,+2.312,+7.000
$EULER,171219,231022.500,+273.125,+2.812,-7.312
$GPRMC,231022.600,A,3950.5693,N,10502.2141,W,15.20,272.12,191217,,,A*43
$GYRO,171219,231022.600,-0.938,-0.562,+7.875
$EULER,171219,231022.600,+272.375,+2.875,-7.188
$GPRMC,231022.700,A,3950.5692,N,10502.2147,W,15.25,271.96,191217,,,A*4F
$GYRO,171219,231022.700,+3.562,-0.875,+11.938
$EULER,171219,231022.700,+271.312,+3.000,-7.500
$GPRMC,231022.800,A,3950.5692,N,10502.2153,W,15.28,271.82,191217,,,A*4D
$GYRO,171219,231022.800,+0.312,+1.750,+12.688
$EULER,171219,231022.800,+270.125,+3.125,-7.688
$GPRMC,231022.900,A,3950.5693,N,10502.2159,W,15.28,271.63,191217,,,A*48
$GYRO,171219,231022.900,-0.062,+0.125,+15.938
$EULER,171219,231022.900,+268.625,+3.188,-7.750
$GPRMC,231023.000,A,3950.5693,N,10502.2165,W,15.27,271.41,191217,,,A*40
$GYRO,171219,231023.000,-5.250,+4.000,+23.625
$EULER,171219,231023.000,+266.750,+3.188,-7.375
$GPRMC,231023.100,A,3950.5692,N,10502.2171,W,15.24,271.18,191217,,,A*4A
$GYRO,171219,231023.100,+2.125,+3.188,+20.125
$EULER,171219,231023.100,+264.938,+3.062,-7.312
$GPRMC,231023.200,A,3950.5691,N,10502.2176,W,15.20,270.84,191217,,,A*4D
$GYRO,171219,231023.200,-0.375,+2.625,+21.062
$EULER,171219,231023.200,+262.750,+3.062,-7.188
$GPRMC,231023.300,A,3950.5690,N,10502.2181,W,14.94,270.09,191217,,,A*4E
$GYRO,171219,231023.300,-3.688,+6.000,+22.500
$EULER,171219,231023.300,+260.875,+2.875,-6.750
$GPRMC,231023.400,A,3950.5685,N,10502.2183,W,14.70,268.80,191217,,,A*4D
$GYRO,171219,231023.400,-9.000,+1.375,+24.875
$EULER,171219,231023.400,+258.562,+2.812,-6.125
$GPRMC,231023.500,A,3950.5683,N,10502.2188,W,14.52,267.57,191217,,,A*44
$GYRO,171219,231023.500,-4.812,-0.312,+26.688
$EULER,171219,231023.500,+256.062,+3.000,-5.438
$GPRMC,231023.600,A,3950.5678,N,10502.2190,W,14.32,266.15,191217,,,A*4B
$GYRO,171219,231023.600,-8.750,+0.812,+26.500
$EULER,171219,231023.600,+253.188,+3.062,-4.812
$GPRMC,231023.700,A,3950.5674,N,10502.2192,W,14.09,264.58,191217,,,A*47
$GYRO,171219,231023.700,-7.375,-0.375,+29.312
$EULER,171219,231023.700,+250.562,+3.250,-4.188
$GPRMC,231023.800,A,3950.5671,N,10502.2196,W,14.02,263.73,191217,,,A*4C
$GYRO,171219,231023.800,-7.438,+2.625,+29.688
$EULER,171219,231023.800,+247.562,+3.312,-3.375
$GPRMC,231023.900,A,3950.5668,N,10502.2199,W,13.70,262.20,191217,,,A*4F
$GYRO,171219,231023.900,-8.875,+1.750,+29.500
$EULER,171219,231023.900,+244.938,+3.250,-2.562
$GPRMC,231024.000,A,3950.5665,N,10502.2202,W,13.41,260.77,191217,,,A*4F
$GYRO,171219,231024.000,-5.438,+3.188,+29.375
$EULER,171219,231024.000,+242.062,+3.125,-1.875
$GPRMC,231024.100,A,3950.5663,N,10502.2205,W,13.38,260.04,191217,,,A*45
$GYRO,171219,231024.100,-3.250,+4.875,+28.125
$EULER,171219,231024.100,+239.312,+2.875,-1.375
$GPRMC,231024.200,A,3950.5661,N,10502.2208,W,13.30,259.24,191217,,,A*49
$GYRO,171219,231024.200,-4.375,+5.312,+28.438
$EULER,171219,231024.200,+236.250,+2.188,-1.000
$GPRMC,231024.300,A,3950.5659,N,10502.2213,W,13.14,258.64,191217,,,A*4A
$GYRO,171219,231024.300,-5.500,+5.812,+29.312
$EULER,171219,231024.300,+233.375,+1.688,-0.438
$GPRMC,231024.400,A,3950.5658,N,10502.2217,W,13.09,257.99,191217,,,A*49
$GYRO,171219,231024.400,-3.062,+6.312,+29.938
$EULER,171219,231024.400,+230.562,+0.625,-1.312
$GPRMC,231024.500,A,3950.5656,N,10502.2222,W,12.92,257.29,191217,,,A*48
$GYRO,171219,231024.500,-4.062,+2.250,+30.688
$EULER,171219,231024.500,+227.875,+0.312,-1.250
$GPRMC,231024.600,A,3950.5654,N,10502.2227,W,12.85,256.63,191217,,,A*45
$GYRO,171219,231024.600,-4.188,+3.438,+29.812
$EULER,171219,231024.600,+224.938,+0.000,-1.062
$GPRMC,231024.700,A,3950.5652,N,10502.2230,W,12.56,255.51,191217,,,A*48
$GYRO,171219,231024.700,-4.875,+2.188,+29.188
$EULER,171219,231024.700,+222.062,-0.188,-0.812
$GPRMC,231024.800,A,3950.5656,N,10502.2242,W,12.49,254.49,191217,,,A*40
$GYRO,171219,231024.800,+0.625,-0.625,+29.375
$EULER,171219,231024.800,+219.188,-0.188,-0.875
$GPRMC,231024.900,A,3950.5657,N,10502.2249,W,12.21,253.35,191217,,,A*49
$GYRO,171219,231024.900,-0.875,+1.125,+29.688
$EULER,171219,231024.900,+216.312,-0.250,-1.000
$GPRMC,231025.000,A,3950.5660,N,10502.2258,W,12.15,252.88,191217,,,A*45
$GYRO,171219,231025.000,-3.875,-0.562,+28.562
$EULER,171219,231025.000,+213.500,-0.312,-1.000
$GPRMC,231025.100,A,3950.5662,N,10502.2268,W,12.09,252.56,191217,,,A*4B
$GYRO,171219,231025.100,+3.188,+4.000,+27.875
$EULER,171219,231025.100,+210.750,-0.750,-1.688
$GPRMC,231025.200,A,3950.5664,N,10502.2277,W,12.04,251.99,191217,,,A*4D
$GYRO,171219,231025.200,+9.000,+6.000,+28.188
$EULER,171219,231025.200,+208.062,-1.312,-1.938
$GPRMC,231025.300,A,3950.5665,N,10502.2284,W,11.97,250.82,191217,,,A*43
$GYRO,171219,231025.300,+4.312,+2.750,+27.500
$EULER,171219,231025.300,+205.375,-1.500,-2.312
$GPRMC,231025.400,A,3950.5665,N,10502.2290,W,11.81,249.74,191217,,,A*47
$GYRO,171219,231025.400,+2.500,+2.625,+25.125
$EULER,171219,231025.400,+202.812,-1.688,-3.062
$GPRMC,231025.500,A,3950.5666,N,10502.2296,W,11.79,248.79,191217,,,A*48
$GYRO,171219,231025.500,-2.750,-1.688,+25.000
$EULER,171219,231025.500,+200.438,-1.625,-3.125
$GPRMC,231025.600,A,3950.5662,N,10502.2297,W,11.18,238.16,191217,,,A*47
$GYRO,171219,231025.600,-0.562,-1.438,+22.625
$EULER,171219,231025.600,+198.188,-1.312,-3.312
$GPRMC,231025.700,A,3950.5658,N,10502.2296,W,11.01,229.23,191217,,,A*40
$GYRO,171219,231025.700,+1.250,-0.312,+20.750
$EULER,171219,231025.700,+196.062,-1.125,-3.500
$GPRMC,231025.800,A,3950.5656,N,10502.2298,W,10.97,227.67,191217,,,A*4F
$GYRO,171219,231025.800,-0.750,+0.312,+21.500
$EULER,171219,231025.800,+194.062,-1.188,-3.500
$GPRMC,231025.900,A,3950.5655,N,10502.2300,W,10.91,226.22,191217,,,A*4B
$GYRO,171219,231025.900,-1.438,+1.562,+22.062
$EULER,171219,231025.900,+191.938,-1.375,-4.312
$GPRMC,231026.000,A,3950.5652,N,10502.2301,W,10.74,223.53,191217,,,A*4F
$GYRO,171219,231026.000,-1.438,+5.062,+21.062
$EULER,171219,231026.000,+189.875,-1.625,-4.500
$GPRMC,231026.100,A,3950.5650,N,10502.2302,W,10.69,220.97,191217,,,A*48
$GYRO,171219,231026.100,-0.375,+3.125,+20.375
$EULER,171219,231026.100,+187.812,-1.875,-5.000
$GPRMC,231026.200,A,3950.5648,N,10502.2303,W,10.67,219.35,191217,,,A*4F
$GYRO,171219,231026.200,+0.375,+5.188,+20.062
$EULER,171219,231026.200,+185.812,-2.500,-6.750
$GPRMC,231026.300,A,3950.5645,N,10502.2304,W,10.44,217.21,191217,,,A*4E
$GYRO,171219,231026.300,-0.125,+3.625,+19.125
$EULER,171219,231026.300,+183.938,-2.625,-6.688
$GPRMC,231026.400,A,3950.5643,N,10502.2305,W,10.25,215.34,191217,,,A*4F
$GYRO,171219,231026.400,-1.562,+4.562,+17.812
$EULER,171219,231026.400,+182.062,-2.875,-6.688
$GPRMC,231026.500,A,3950.5641,N,10502.2306,W,10.22,213.11,191217,,,A*49
$GYRO,171219,231026.500,-2.000,+5.500,+16.938
$EULER,171219,231026.500,+180.375,-3.000,-6.562
$GPRMC,231026.600,A,3950.5638,N,10502.2307,W,10.17,209.44,191217,,,A*48
$GYRO,171219,231026.600,-0.500,+2.438,+16.250
$EULER,171219,231026.600,+178.750,-3.062,-6.438
$GPRMC,231026.700,A,3950.5635,N,10502.2307,W,10.16,204.70,191217,,,A*4F
$GYRO,171219,231026.700,-2.062,-1.438,+15.500
$EULER,171219,231026.700,+177.250,-3.000,-6.500
$GPRMC,231026.800,A,3950.5632,N,10502.2307,W,10.15,201.52,191217,,,A*41
$GYRO,171219,231026.800,-2.438,+2.938,+14.812
$EULER,171219,231026.800,+175.812,-2.812,-6.562
$GPRMC,231026.900,A,3950.5630,N,10502.2309,W,9.98,199.55,191217,,,A*74
$GYRO,171219,231026.900,+0.188,+0.188,+15.188
$EULER,171219,231026.900,+174.312,-2.688,-6.625
$GPRMC,231027.000,A,3950.5627,N,10502.2309,W,9.83,197.58,191217,,,A*73
$GYRO,171219,231027.000,-0.375,+2.625,+14.688
$EULER,171219,231027.000,+173.062,-2.625,-6.562
$GPRMC,231027.100,A,3950.5625,N,10502.2310,W,9.86,196.68,191217,,,A*7F
$GYRO,171219,231027.100,-0.812,+2.688,+14.688
$EULER,171219,231027.100,+171.562,-2.750,-6.500
$GPRMC,231027.200,A,3950.5622,N,10502.2311,W,9.92,195.39,191217,,,A*78
$GYRO,171219,231027.200,-2.438,+1.375,+14.062
$EULER,171219,231027.200,+170.188,-3.000,-6.750
$GPRMC,231027.300,A,3950.5619,N,10502.2311,W,9.97,193.57,191217,,,A*7A
$GYRO,171219,231027.300,+0.438,+3.125,+13.875
$EULER,171219,231027.300,+168.812,-3.125,-7.125
$GPRMC,231027.400,A,3950.5616,N,10502.2311,W,10.02,192.12,191217,,,A*46
$GYRO,171219,231027.400,-1.250,+1.500,+13.812
$EULER,171219,231027.400,+167.500,-3.125,-7.000
$GPRMC,231027.500,A,3950.5613,N,10502.2311,W,10.09,190.31,191217,,,A*4A
$GYRO,171219,231027.500,-1.375,+1.250,+13.688
$EULER,171219,231027.500,+166.125,-3.062,-6.812
$GPRMC,231027.600,A,3950.5608,N,10502.2309,W,10.27,188.69,191217,,,A*42
$GYRO,171219,231027.600,-2.938,+1.000,+14.000
$EULER,171219,231027.600,+164.750,-3.000,-6.750
$GPRMC,231027.700,A,3950.5604,N,10502.2309,W,10.33,187.15,191217,,,A*4E
$GYRO,171219,231027.700,+0.812,+2.500,+14.188
$EULER,171219,231027.700,+163.375,-3.062,-6.750
$GPRMC,231027.800,A,3950.5601,N,10502.2308,W,10.39,185.61,191217,,,A*4E
$GYRO,171219,231027.800,-2.688,+0.062,+14.000
$EULER,171219,231027.800,+162.000,-3.062,-6.688
$GPRMC,231027.900,A,3950.5598,N,10502.2306,W,10.65,183.27,191217,,,A*4F
$GYRO,171219,231027.900,-3.000,+4.062,+13.625
$EULER,171219,231027.900,+160.688,-3.125,-6.625
$GPRMC,231028.000,A,3950.5595,N,10502.2305,W,10.83,181.00,191217,,,A*48
$GYRO,171219,231028.000,-3.250,-2.375,+13.438
$EULER,171219,231028.000,+159.375,-3.250,-6.438
$GPRMC,231028.100,A,3950.5593,N,10502.2303,W,10.85,179.92,191217,,,A*43
$GYRO,171219,231028.100,-2.438,+1.625,+12.938
$EULER,171219,231028.100,+158.062,-3.188,-6.312
$GPRMC,231028.200,A,3950.5591,N,10502.2301,W,10.90,178.54,191217,,,A*4F
$GYRO,171219,231028.200,-1.938,+0.812,+12.375
$EULER,171219,231028.200,+156.812,-3.250,-6.250
$GPRMC,231028.300,A,3950.5589,N,10502.2298,W,10.96,176.95,191217,,,A*43
$GYRO,171219,231028.300,-2.625,+1.312,+12.500
$EULER,171219,231028.300,+155.625,-3.250,-6.188
$GPRMC,231028.400,A,3950.5587,N,10502.2296,W,11.12,175.14,191217,,,A*43
$GYRO,171219,231028.400,-2.750,+1.938,+12.125
$EULER,171219,231028.400,+154.375,-3.375,-6.125
$GPRMC,231028.500,A,3950.5585,N,10502.2294,W,11.15,173.36,191217,,,A*43
$GYRO,171219,231028.500,-1.000,+2.688,+12.062
$EULER,171219,231028.500,+153.188,-3.375,-6.062
$GPRMC,231028.600,A,3950.5582,N,10502.2293,W,11.23,170.37,191217,,,A*47
$GYRO,171219,231028.600,+0.250,+1.375,+12.250
$EULER,171219,231028.600,+152.000,-3.500,-6.250
$GPRMC,231028.700,A,3950.5580,N,10502.2291,W,11.38,167.70,191217,,,A*49
$GYRO,171219,231028.700,-2.000,+3.500,+12.250
$EULER,171219,231028.700,+150.750,-3.500,-6.125
$GPRMC,231028.800,A,3950.5578,N,10502.2290,W,11.43,165.34,191217,,,A*4E
$GYRO,171219,231028.800,+0.500,+0.812,+12.250
$EULER,171219,231028.800,+149.562,-3.562,-6.250
$GPRMC,231028.900,A,3950.5575,N,10502.2287,W,11.51,162.97,191217,,,A*49
$GYRO,171219,231028.900,-4.125,-0.438,+12.438
$EULER,171219,231028.900,+148.375,-3.688,-6.875
$GPRMC,231029.000,A,3950.5574,N,10502.2283,W,11.56,159.93,191217,,,A*4F
$GYRO,171219,231029.000,-0.062,+4.125,+12.125
$EULER,171219,231029.000,+147.125,-3.688,-6.812
$GPRMC,231029.100,A,3950.5572,N,10502.2280,W,11.61,159.09,191217,,,A*4C
$GYRO,171219,231029.100,+0.000,+1.562,+11.438
$EULER,171219,231029.100,+146.000,-3.625,-6.875
$GPRMC,231029.200,A,3950.5570,N,10502.2276,W,11.61,156.99,191217,,,A*42
$GYRO,171219,231029.200,-3.938,+1.750,+11.000
$EULER,171219,231029.200,+144.875,-3.625,-6.750
$GPRMC,231029.300,A,3950.5567,N,10502.2272,W,11.65,154.33,191217,,,A*47
$GYRO,171219,231029.300,+0.750,-1.688,+11.500
$EULER,171219,231029.300,+143.688,-3.500,-6.750
$GPRMC,231029.400,A,3950.5566,N,10502.2266,W,11.69,152.05,191217,,,A*4B
$GYRO,171219,231029.400,+0.688,+1.875,+11.562
$EULER,171219,231029.400,+142.625,-3.438,-6.812
$GPRMC,231029.500,A,3950.5565,N,10502.2260,W,11.90,149.72,191217,,,A*43
$GYRO,171219,231029.500,+0.000,+0.688,+11.312
$EULER,171219,231029.500,+141.500,-3.438,-6.812
$GPRMC,231029.600,A,3950.5564,N,10502.2255,W,12.08,147.81,191217,,,A*47
$GYRO,171219,231029.600,-1.625,-0.625,+11.250
$EULER,171219,231029.600,+140.375,-3.312,-6.688
$GPRMC,231029.700,A,3950.5561,N,10502.2251,W,12.15,146.38,191217,,,A*48
$GYRO,171219,231029.700,+0.312,-1.438,+11.375
$EULER,171219,231029.700,+139.250,-3.250,-6.750
$GPRMC,231029.800,A,3950.5558,N,10502.2248,W,12.39,145.20,191217,,,A*41
$GYRO,171219,231029.800,+0.125,+1.188,+11.438
$EULER,171219,231029.800,+138.188,-3.125,-6.812
$GPRMC,231029.900,A,3950.5555,N,10502.2244,W,12.46,144.18,191217,,,A*43
$GYRO,171219,231029.900,+2.062,+1.375,+11.062
$EULER,171219,231029.900,+137.062,-3.000,-6.875
$GPRMC,231030.000,A,3950.5553,N,10502.2240,W,12.66,143.15,191217,,,A*48
$GYRO,171219,231030.000,+1.938,+0.375,+11.000
$EULER,171219,231030.000,+136.000,-3.000,-6.938
$GPRMC,231030.100,A,3950.5549,N,10502.2237,W,12.68,143.09,191217,,,A*41
$GYRO,171219,231030.100,+0.000,+0.000,+10.875
$EULER,171219,231030.100,+135.062,-3.000,-7.062
$GPRMC,231030.200,A,3950.5546,N,10502.2233,W,12.71,143.00,191217,,,A*48
$GYRO,171219,231030.200,-1.250,+4.812,+10.125
$EULER,171219,231030.200,+134.000,-3.125,-7.062
$GPRMC,231030.300,A,3950.5543,N,10502.2230,W,12.75,142.76,191217,,,A*4B
$GYRO,171219,231030.300,-2.375,-0.375,+9.938
$EULER,171219,231030.300,+133.000,-3.250,-7.062
$GPRMC,231030.400,A,3950.5540,N,10502.2227,W,12.79,142.23,191217,,,A*45
$GYRO,171219,231030.400,-1.000,+1.312,+9.688
$EULER,171219,231030.400,+132.000,-3.188,-7.000
$GPRMC,231030.500,A,3950.5537,N,10502.2224,W,12.83,141.73,191217,,,A*44
$GYRO,171219,231030.500,+0.125,+2.688,+9.562
$EULER,171219,231030.500,+131.062,-3.312,-7.062
$GPRMC,231030.600,A,3950.5534,N,10502.2221,W,12.87,140.99,191217,,,A*40
$GYRO,171219,231030.600,-0.625,+0.875,+9.250
$EULER,171219,231030.600,+130.125,-3.250,-7.375
$GPRMC,231030.700,A,3950.5530,N,10502.2216,W,12.92,140.30,191217,,,A*46
$GYRO,171219,231030.700,-1.000,+1.125,+8.750
$EULER,171219,231030.700,+129.250,-3.250,-7.312
$GPRMC,231030.800,A,3950.5526,N,10502.2213,W,13.08,139.47,191217,,,A*47
$GYRO,171219,231030.800,-3.562,-0.250,+8.688
$EULER,171219,231030.800,+128.438,-3.188,-7.500
$GPRMC,231030.900,A,3950.5523,N,10502.2208,W,13.11,138.68,191217,,,A*4D
$GYRO,171219,231030.900,-0.750,+0.312,+8.375
$EULER,171219,231030.900,+127.562,-3.062,-7.438
$GPRMC,231031.000,A,3950.5520,N,10502.2204,W,13.15,137.48,191217,,,A*43
$GYRO,171219,231031.000,-1.500,+1.375,+7.938
$EULER,171219,231031.000,+126.875,-3.125,-7.375
$GPRMC,231031.100,A,3950.5517,N,10502.2200,W,13.15,137.06,191217,,,A*48
$GYRO,171219,231031.100,-0.312,+2.000,+7.875
$EULER,171219,231031.100,+126.062,-2.875,-8.000
$GPRMC,231031.200,A,3950.5514,N,10502.2196,W,13.16,136.64,191217,,,A*42
$GYRO,171219,231031.200,-2.062,+1.625,+6.688
$EULER,171219,231031.200,+125.312,-2.812,-7.750
$GPRMC,231031.300,A,3950.5512,N,10502.2191,W,13.16,136.25,191217,,,A*47
$GYRO,171219,231031.300,-1.438,-0.250,+6.000
$EULER,171219,231031.300,+124.750,-2.750,-7.375
$GPRMC,231031.400,A,3950.5510,N,10502.2187,W,13.17,135.89,191217,,,A*41
$GYRO,171219,231031.400,-2.312,+1.312,+5.625
$EULER,171219,231031.400,+124.125,-2.750,-7.250
$GPRMC,231031.500,A,3950.5508,N,10502.2182,W,13.16,135.44,191217,,,A*4C
$GYRO,171219,231031.500,-5.875,-3.375,+5.312
$EULER,171219,231031.500,+123.625,-2.688,-7.188
$GPRMC,231031.600,A,3950.5508,N,10502.2177,W,13.15,134.87,191217,,,A*48
$GYRO,171219,231031.600,-3.688,+1.688,+4.312
$EULER,171219,231031.600,+123.188,-2.688,-7.125
$GPRMC,231031.700,A,3950.5506,N,10502.2173,W,13.15,134.20,191217,,,A*4E
$GYRO,171219,231031.700,-2.438,-0.812,+4.375
$EULER,171219,231031.700,+122.750,-2.625,-6.938
$GPRMC,231031.800,A,3950.5506,N,10502.2168,W,13.15,133.08,191217,,,A*46
$GYRO,171219,231031.800,+1.688,+2.188,+4.250
$EULER,171219,231031.800,+122.250,-2.500,-7.000
$GPRMC,231031.900,A,3950.5511,N,10502.2161,W,13.15,131.33,191217,,,A*42
$GYRO,171219,231031.900,-3.500,+1.188,+3.812
$EULER,171219,231031.900,+121.875,-2.500,-7.000
$GPRMC,231032.000,A,3950.5510,N,10502.2156,W,13.13,129.19,191217,,,A*4A
$GYRO,171219,231032.000,-1.312,+1.688,+4.250
$EULER,171219,231032.000,+121.500,-2.375,-7.188
$GPRMC,231032.100,A,3950.5509,N,10502.2151,W,13.10,128.15,191217,,,A*4A
$GYRO,171219,231032.100,+0.938,+0.438,+4.062
$EULER,171219,231032.100,+121.062,-2.375,-7.312
$GPRMC,231032.200,A,3950.5507,N,10502.2145,W,13.06,126.55,191217,,,A*4F
$GYRO,171219,231032.200,+1.688,+2.125,+4.125
$EULER,171219,231032.200,+120.688,-2.500,-7.438
$GPRMC,231032.300,A,3950.5506,N,10502.2140,W,13.02,125.13,191217,,,A*4F
$GYRO,171219,231032.300,-0.125,-1.062,+4.062
$EULER,171219,231032.300,+120.312,-2.438,-7.500
$GPRMC,231032.400,A,3950.5504,N,10502.2135,W,13.00,123.99,191217,,,A*4E
$GYRO,171219,231032.400,+1.000,+0.500,+4.500
$EULER,171219,231032.400,+119.875,-2.375,-7.625
$GPRMC,231032.500,A,3950.5502,N,10502.2130,W,13.01,123.03,191217,,,A*4E
$GYRO,171219,231032.500,+1.375,-0.500,+4.250
$EULER,171219,231032.500,+119.438,-2.312,-7.750
$GPRMC,231032.600,A,3950.5500,N,10502.2125,W,13.03,122.27,191217,,,A*4E
$GYRO,171219,231032.600,-1.562,-1.500,+3.875
$EULER,171219,231032.600,+119.062,-2.062,-7.875
$GPRMC,231032.700,A,3950.5498,N,10502.2120,W,13.08,121.52,191217,,,A*40
$GYRO,171219,231032.700,-0.188,-0.250,+4.000
$EULER,171219,231032.700,+118.688,-2.000,-7.812
$GPRMC,231032.800,A,3950.5496,N,10502.2115,W,13.14,120.86,191217,,,A*42
$GYRO,171219,231032.800,-1.438,-0.812,+3.750
$EULER,171219,231032.800,+118.250,-1.938,-7.812
$GPRMC,231032.900,A,3950.5494,N,10502.2110,W,13.20,120.23,191217,,,A*4C
$GYRO,171219,231032.900,-2.438,+1.250,+2.875
$EULER,171219,231032.900,+117.938,-2.062,-7.625
$GPRMC,231033.000,A,3950.5492,N,10502.2106,W,13.26,119.65,191217,,,A*4B
$GYRO,171219,231033.000,+1.188,+0.812,+3.125
$EULER,171219,231033.000,+117.688,-2.125,-7.625
$GPRMC,231033.100,A,3950.5490,N,10502.2101,W,13.32,119.43,191217,,,A*4E
$GYRO,171219,231033.100,+7.125,-0.625,+3.188
$EULER,171219,231033.100,+117.375,-2.062,-7.688
$GPRMC,231033.200,A,3950.5488,N,10502.2096,W,13.38,119.18,191217,,,A*4F
$GYRO,171219,231033.200,+3.625,+0.062,+2.062
$EULER,171219,231033.200,+117.125,-2.000,-7.688
$GPRMC,231033.300,A,3950.5486,N,10502.2092,W,13.45,118.99,191217,,,A*46
$GYRO,171219,231033.300,+2.000,+1.625,+0.750
$EULER,171219,231033.300,+117.000,-2.062,-7.812
$GPRMC,231033.400,A,3950.5484,N,10502.2086,W,13.60,118.57,191217,,,A*43
$GYRO,171219,231033.400,+6.312,+1.062,+0.812
$EULER,171219,231033.400,+116.938,-2.062,-7.938
$GPRMC,231033.500,A,3950.5483,N,10502.2081,W,13.65,118.02,191217,,,A*47
$GYRO,171219,231033.500,+5.875,+1.062,+0.812
$EULER,171219,231033.500,+116.875,-2.062,-8.312
$GPRMC,231033.600,A,3950.5481,N,10502.2076,W,13.72,117.37,191217,,,A*41
$GYRO,171219,231033.600,-0.750,+1.250,+0.188
$EULER,171219,231033.600,+116.875,-2.000,-8.438
$GPRMC,231033.700,A,3950.5480,N,10502.2070,W,13.88,116.66,191217,,,A*47
$GYRO,171219,231033.700,-2.750,+0.875,+0.250
$EULER,171219,231033.700,+116.875,-2.000,-8.500
$GPRMC,231033.800,A,3950.5480,N,10502.2064,W,13.93,116.02,191217,,,A*45
$GYRO,171219,231033.800,+0.875,-2.062,+0.188
$EULER,171219,231033.800,+116.875,-2.000,-8.562
$GPRMC,231033.900,A,3950.5480,N,10502.2059,W,14.09,115.41,191217,,,A*4A
$GYRO,171219,231033.900,+0.688,+0.750,+0.000
$EULER,171219,231033.900,+116.875,-2.062,-8.562
$GPRMC,231034.000,A,3950.5480,N,10502.2052,W,14.27,114.53,191217,,,A*41
$GYRO,171219,231034.000,+1.062,-0.312,-0.250
$EULER,171219,231034.000,+116.875,-2.000,-8.562
$GPRMC,231034.100,A,3950.5479,N,10502.2047,W,14.29,114.42,191217,,,A*4C
$GYRO,171219,231034.100,-0.250,-1.438,+0.125
$EULER,171219,231034.100,+116.875,-1.938,-8.625
$GPRMC,231034.200,A,3950.5478,N,10502.2042,W,14.32,114.22,191217,,,A*47
$GYRO,171219,231034.200,+0.500,-1.500,+0.250
$EULER,171219,231034.200,+116.875,-1.812,-8.750
$GPRMC,231034.300,A,3950.5477,N,10502.2037,W,14.40,113.64,191217,,,A*4B
$GYRO,171219,231034.300,+1.188,-2.625,+0.812
$EULER,171219,231034.300,+116.812,-1.688,-8.875
$GPRMC,231034.400,A,3950.5476,N,10502.2032,W,14.55,113.30,191217,,,A*4D
$GYRO,171219,231034.400,+6.062,-1.500,+1.562
$EULER,171219,231034.400,+116.750,-1.438,-9.000
$GPRMC,231034.500,A,3950.5474,N,10502.2026,W,14.63,112.57,191217,,,A*4E
$GYRO,171219,231034.500,+3.188,+1.312,+1.375
$EULER,171219,231034.500,+116.625,-1.375,-9.188
$GPRMC,231034.600,A,3950.5473,N,10502.2021,W,14.83,112.03,191217,,,A*42
$GYRO,171219,231034.600,+2.375,+4.250,+0.812
$EULER,171219,231034.600,+116.500,-1.562,-9.375
$GPRMC,231034.700,A,3950.5471,N,10502.2015,W,14.88,111.48,191217,,,A*41
$GYRO,171219,231034.700,-0.688,-0.438,+0.938
$EULER,171219,231034.700,+116.438,-1.688,-9.500
$GPRMC,231034.800,A,3950.5469,N,10502.2010,W,14.96,111.06,191217,,,A*47
$GYRO,171219,231034.800,+0.938,+2.188,+1.312
$EULER,171219,231034.800,+116.250,-1.750,-9.500
$GPRMC,231034.900,A,3950.5467,N,10502.2005,W,15.16,110.47,191217,,,A*41
$GYRO,171219,231034.900,-1.250,-3.562,+1.625
$EULER,171219,231034.900,+116.125,-1.812,-9.625
$GPRMC,231035.000,A,3950.5466,N,10502.1999,W,15.21,110.07,191217,,,A*47
$GYRO,171219,231035.000,-4.125,-3.812,+1.688
$EULER,171219,231035.000,+116.000,-1.625,-9.688
$GPRMC,231035.100,A,3950.5464,N,10502.1994,W,15.25,110.00,191217,,,A*4A
$GYRO,171219,231035.100,-1.312,-0.125,+1.938
$EULER,171219,231035.100,+115.812,-1.500,-9.625
$GPRMC,231035.200,A,3950.5463,N,10502.1989,W,15.30,109.77,191217,,,A*4E
$GYRO,171219,231035.200,-1.562,-1.562,+1.875
$EULER,171219,231035.200,+115.625,-1.375,-9.562
$GPRMC,231035.300,A,3950.5462,N,10502.1983,W,15.37,109.47,191217,,,A*40
$GYRO,171219,231035.300,+2.125,+3.062,+1.750
$EULER,171219,231035.300,+115.438,-1.625,-9.500
$GPRMC,231035.400,A,3950.5461,N,10502.1977,W,15.53,109.21,191217,,,A*4D
$GYRO,171219,231035.400,+4.875,+5.188,+1.625
$EULER,171219,231035.400,+115.250,-1.750,-9.500
$GPRMC,231035.500,A,3950.5459,N,10502.1970,W,15.58,108.95,191217,,,A*45
$GYRO,171219,231035.500,+3.438,+0.562,+1.125
$EULER,171219,231035.500,+115.125,-1.875,-9.438
$GPRMC,231035.600,A,3950.5458,N,10502.1964,W,15.65,108.79,191217,,,A*4E
$GYRO,171219,231035.600,-0.375,+1.438,+1.688
$EULER,171219,231035.600,+115.000,-1.750,-9.312
$GPRMC,231035.700,A,3950.5456,N,10502.1958,W,15.82,108.73,191217,,,A*4D
$GYRO,171219,231035.700,-0.938,-1.375,+2.062
$EULER,171219,231035.700,+114.812,-1.625,-9.500
$GPRMC,231035.800,A,3950.5455,N,10502.1952,W,15.88,108.50,191217,,,A*40
$GYRO,171219,231035.800,-2.438,+1.125,+1.750
$EULER,171219,231035.800,+114.625,-1.500,-9.438
$GPRMC,231035.900,A,3950.5453,N,10502.1946,W,16.05,108.26,191217,,,A*45
$GYRO,171219,231035.900,-3.375,+0.375,+1.625
$EULER,171219,231035.900,+114.500,-1.500,-9.312
$GPRMC,231036.000,A,3950.5451,N,10502.1940,W,16.10,108.05,191217,,,A*4E
$GYRO,171219,231036.000,+2.250,+0.562,+2.062
$EULER,171219,231036.000,+114.312,-1.562,-9.312
$GPRMC,231036.100,A,3950.5450,N,10502.1934,W,16.14,108.09,191217,,,A*45
$GYRO,171219,231036.100,-0.750,-0.188,+1.562
$EULER,171219,231036.100,+114.125,-1.562,-9.250
$GPRMC,231036.200,A,3950.5448,N,10502.1929,W,16.19,107.93,191217,,,A*42
$GYRO,171219,231036.200,-2.562,+1.188,+1.312
$EULER,171219,231036.200,+114.000,-1.500,-9.188
$GPRMC,231036.300,A,3950.5447,N,10502.1923,W,16.26,107.72,191217,,,A*45
$GYRO,171219,231036.300,+0.125,-0.938,+1.438
$EULER,171219,231036.300,+113.875,-1.500,-9.250
$GPRMC,231036.400,A,3950.5445,N,10502.1916,W,16.44,107.42,191217,,,A*41
$GYRO,171219,231036.400,-0.812,-0.375,+1.250
$EULER,171219,231036.400,+113.750,-1.375,-9.125
$GPRMC,231036.500,A,3950.5444,N,10502.1910,W,16.49,107.19,191217,,,A*44
$GYRO,171219,231036.500,+5.625,+0.125,+1.312
$EULER,171219,231036.500,+113.625,-1.250,-9.188
$GPRMC,231036.600,A,3950.5442,N,10502.1904,W,16.65,107.02,191217,,,A*40
$GYRO,171219,231036.600,-1.312,-1.625,+0.938
$EULER,171219,231036.600,+113.562,-1.125,-9.125
$GPRMC,231036.700,A,3950.5440,N,10502.1898,W,16.69,106.88,191217,,,A*48
$GYRO,171219,231036.700,-1.812,+2.812,+0.000
$EULER,171219,231036.700,+113.500,-1.000,-9.062
$GPRMC,231036.800,A,3950.5439,N,10502.1892,W,16.87,106.73,191217,,,A*47
$GYRO,171219,231036.800,+2.500,-3.562,+0.875
$EULER,171219,231036.800,+113.500,-0.938,-8.875
$GPRMC,231036.900,A,3950.5437,N,10502.1885,W,16.93,106.68,191217,,,A*41
$GYRO,171219,231036.900,+4.938,+1.812,+0.938
$EULER,171219,231036.900,+113.375,-0.875,-8.938
$GPRMC,231037.000,A,3950.5436,N,10502.1877,W,17.00,106.67,191217,,,A*41
$GYRO,171219,231037.000,+2.938,+0.750,+1.000
$EULER,171219,231037.000,+113.312,-0.750,-9.000
$GPRMC,231037.100,A,3950.5435,N,10502.1870,W,17.07,106.63,191217,,,A*47
$GYRO,171219,231037.100,+6.312,+7.812,+0.625
$EULER,171219,231037.100,+113.250,-1.000,-9.125
$GPRMC,231037.200,A,3950.5433,N,10502.1863,W,17.12,106.69,191217,,,A*4E
$GYRO,171219,231037.200,-0.188,+3.750,+0.688
$EULER,171219,231037.200,+113.188,-1.250,-9.250
$GPRMC,231037.300,A,3950.5431,N,10502.1856,W,17.16,106.68,191217,,,A*4E
$GYRO,171219,231037.300,+1.562,+0.500,+0.875
$EULER,171219,231037.300,+113.125,-1.438,-9.375
$GPRMC,231037.400,A,3950.5430,N,10502.1848,W,17.22,106.64,191217,,,A*4C
$GYRO,171219,231037.400,+4.688,+0.562,+1.062
$EULER,171219,231037.400,+113.062,-1.562,-9.438
$GPRMC,231037.500,A,3950.5428,N,10502.1842,W,17.27,106.61,191217,,,A*4E
$GYRO,171219,231037.500,+2.875,-0.062,+0.562
$EULER,171219,231037.500,+113.000,-1.438,-9.375
$GPRMC,231037.600,A,3950.5427,N,10502.1834,W,17.33,106.57,191217,,,A*43
$GYRO,171219,231037.600,-0.062,+3.000,+0.375
$EULER,171219,231037.600,+113.000,-1.438,-9.375
$GPRMC,231037.700,A,3950.5426,N,10502.1827,W,17.39,106.57,191217,,,A*4B
$GYRO,171219,231037.700,+0.500,+2.000,+0.125
$EULER,171219,231037.700,+113.000,-1.375,-9.375
$GPRMC,231037.800,A,3950.5424,N,10502.1820,W,17.45,106.59,191217,,,A*44
$GYRO,171219,231037.800,-4.438,-2.250,+0.250
$EULER,171219,231037.800,+113.000,-1.375,-9.250
$GPRMC,231037.900,A,3950.5422,N,10502.1814,W,17.61,106.47,191217,,,A*4D
$GYRO,171219,231037.900,+3.562,+3.750,+0.062
$EULER,171219,231037.900,+113.000,-1.312,-9.250
$GPRMC,231038.000,A,3950.5420,N,10502.1808,W,17.65,106.37,191217,,,A*47
$GYRO,171219,231038.000,+2.312,+1.500,+0.000
$EULER,171219,231038.000,+113.000,-1.312,-9.250
$GPRMC,231038.100,A,3950.5418,N,10502.1802,W,17.68,106.34,191217,,,A*49
$GYRO,171219,231038.100,+1.438,-1.438,-0.188
$EULER,171219,231038.100,+113.062,-1.312,-9.250
$GPRMC,231038.200,A,3950.5416,N,10502.1796,W,17.71,106.37,191217,,,A*4D
$GYRO,171219,231038.200,+2.750,+3.688,+0.188
$EULER,171219,231038.200,+113.000,-1.438,-9.125
$GPRMC,231038.300,A,3950.5414,N,10502.1790,W,17.75,106.47,191217,,,A*4B
$GYRO,171219,231038.300,+4.438,+2.125,+0.250
$EULER,171219,231038.300,+113.000,-1.500,-9.250
$GPRMC,231038.400,A,3950.5412,N,10502.1784,W,17.78,106.54,191217,,,A*40
$GYRO,171219,231038.400,+3.375,-0.938,+0.312
$EULER,171219,231038.400,+113.000,-1.500,-9.312
$GPRMC,231038.500,A,3950.5410,N,10502.1777,W,17.81,106.69,191217,,,A*47
$GYRO,171219,231038.500,+3.812,+0.875,-0.125
$EULER,171219,231038.500,+113.000,-1.438,-9.312
$GPRMC,231038.600,A,3950.5407,N,10502.1771,W,17.85,106.85,191217,,,A*42
$GYRO,171219,231038.600,-3.625,+2.312,-0.188
$EULER,171219,231038.600,+113.000,-1.562,-9.250
$GPRMC,231038.700,A,3950.5405,N,10502.1764,W,17.89,106.95,191217,,,A*48
$GYRO,171219,231038.700,-2.750,-2.125,+0.125
$EULER,171219,231038.700,+113.000,-1.500,-9.250
$GPRMC,231038.800,A,3950.5403,N,10502.1758,W,17.93,106.97,191217,,,A*47
$GYRO,171219,231038.800,-0.500,+2.750,+0.250
$EULER,171219,231038.800,+113.000,-1.500,-9.312
$GPRMC,231038.900,A,3950.5401,N,10502.1751,W,17.97,107.06,191217,,,A*40
$GYRO,171219,231038.900,+1.750,-1.000,+0.125
$EULER,171219,231038.900,+113.000,-1.562,-9.375
$GPRMC,231039.000,A,3950.5399,N,10502.1744,W,18.01,107.13,191217,,,A*4E
$GYRO,171219,231039.000,-3.000,-1.125,-0.062
$EULER,171219,231039.000,+113.000,-1.688,-9.312
$GPRMC,231039.100,A,3950.5397,N,10502.1738,W,18.05,107.19,191217,,,A*44
$GYRO,171219,231039.100,-3.875,-1.062,-0.125
$EULER,171219,231039.100,+113.000,-1.688,-9.250
$GPRMC,231039.200,A,3950.5396,N,10502.1731,W,18.07,107.21,191217,,,A*46
$GYRO,171219,231039.200,-1.938,-1.312,-0.312
$EULER,171219,231039.200,+113.000,-1.750,-9.312
$GPRMC,231039.300,A,3950.5394,N,10502.1724,W,18.09,107.20,191217,,,A*4E
$GYRO,171219,231039.300,-3.625,-3.750,-0.250
$EULER,171219,231039.300,+113.000,-1.562,-9.188
$GPRMC,231039.400,A,3950.5392,N,10502.1718,W,18.11,107.19,191217,,,A*43
$GYRO,171219,231039.400,-3.000,-1.750,+0.375
$EULER,171219,231039.400,+113.000,-1.438,-9.062
$GPRMC,231039.500,A,3950.5390,N,10502.1711,W,18.13,107.22,191217,,,A*43
$GYRO,171219,231039.500,+0.750,+0.438,+0.000
$EULER,171219,231039.500,+113.000,-1.250,-9.062
$GPRMC,231039.600,A,3950.5388,N,10502.1704,W,18.15,107.31,191217,,,A*49
$GYRO,171219,231039.600,-4.188,+3.938,-0.750
$EULER,171219,231039.600,+113.062,-1.438,-8.875
$GPRMC,231039.700,A,3950.5386,N,10502.1697,W,18.17,107.44,191217,,,A*4D
$GYRO,171219,231039.700,-7.312,-0.875,-0.500
$EULER,171219,231039.700,+113.062,-1.625,-8.625
$GPRMC,231039.800,A,3950.5384,N,10502.1691,W,18.18,107.63,191217,,,A*4C
$GYRO,171219,231039.800,+4.438,+1.312,+0.562
$EULER,171219,231039.800,+113.062,-1.750,-8.625
$GPRMC,231039.900,A,3950.5382,N,10502.1684,W,18.20,107.83,191217,,,A*4A
$GYRO,171219,231039.900,-1.000,+1.250,+0.062
$EULER,171219,231039.900,+113.062,-1.688,-8.500
$GPRMC,231040.000,A,3950.5380,N,10502.1678,W,18.21,108.03,191217,,,A*4A
$GYRO,171219,231040.000,-2.812,+1.312,-0.125
$EULER,171219,231040.000,+113.062,-1.750,-8.312
$GPRMC,231040.100,A,3950.5378,N,10502.1671,W,18.20,108.14,191217,,,A*42
$GYRO,171219,231040.100,-1.312,-1.125,-0.188
$EULER,171219,231040.100,+113.062,-1.812,-8.188
$GPRMC,231040.200,A,3950.5377,N,10502.1665,W,18.19,108.33,191217,,,A*44
$GYRO,171219,231040.200,+4.125,+0.625,+0.188
$EULER,171219,231040.200,+113.062,-2.312,-8.125
$GPRMC,231040.300,A,3950.5375,N,10502.1658,W,18.17,108.44,191217,,,A*47
$GYRO,171219,231040.300,+2.938,-0.625,+0.875
$EULER,171219,231040.300,+113.062,-2.188,-8.188
$GPRMC,231040.400,A,3950.5373,N,10502.1652,W,18.14,108.54,191217,,,A*4E
$GYRO,171219,231040.400,+1.062,+2.375,+0.875
$EULER,171219,231040.400,+112.938,-2.188,-8.188
$GPRMC,231040.500,A,3950.5371,N,10502.1646,W,18.11,108.73,191217,,,A*48
$GYRO,171219,231040.500,+3.500,-1.000,+1.812
$EULER,171219,231040.500,+112.812,-2.062,-8.188
$GPRMC,231040.600,A,3950.5370,N,10502.1639,W,18.07,108.95,191217,,,A*4D
$GYRO,171219,231040.600,+0.312,+1.188,+2.062
$EULER,171219,231040.600,+112.688,-2.062,-8.062
$GPRMC,231040.700,A,3950.5368,N,10502.1633,W,18.02,108.92,191217,,,A*4D
$GYRO,171219,231040.700,+2.188,+2.562,+2.688
$EULER,171219,231040.700,+112.438,-2.125,-8.188
$GPRMC,231040.800,A,3950.5366,N,10502.1627,W,17.97,108.96,191217,,,A*4E
$GYRO,171219,231040.800,+1.500,-1.625,+2.875
$EULER,171219,231040.800,+112.188,-2.062,-8.250
$GPRMC,231040.900,A,3950.5365,N,10502.1620,W,17.93,108.90,191217,,,A*49
$GYRO,171219,231040.900,+1.938,-1.062,+3.375
$EULER,171219,231040.900,+111.875,-2.000,-8.375
$GPRMC,231041.000,A,3950.5364,N,10502.1614,W,17.88,108.85,191217,,,A*49
$GYRO,171219,231041.000,-1.688,+2.062,+3.625
$EULER,171219,231041.000,+111.500,-2.062,-8.500
$GPRMC,231041.100,A,3950.5362,N,10502.1608,W,17.83,108.72,191217,,,A*40
$GYRO,171219,231041.100,-1.562,-0.688,+4.312
$EULER,171219,231041.100,+111.125,-2.000,-8.500
$GPRMC,231041.200,A,3950.5361,N,10502.1602,W,17.78,108.65,191217,,,A*48
$GYRO,171219,231041.200,+0.875,+2.812,+4.750
$EULER,171219,231041.200,+110.688,-2.125,-8.562
$GPRMC,231041.300,A,3950.5360,N,10502.1596,W,17.72,108.63,191217,,,A*4A
$GYRO,171219,231041.300,+2.062,-1.000,+5.562
$EULER,171219,231041.300,+110.125,-2.000,-8.688
$GPRMC,231041.400,A,3950.5359,N,10502.1590,W,17.55,108.61,191217,,,A*46
$GYRO,171219,231041.400,-0.750,+1.312,+5.938
$EULER,171219,231041.400,+109.562,-1.875,-8.750
$GPRMC,231041.500,A,3950.5357,N,10502.1584,W,17.50,108.61,191217,,,A*49
$GYRO,171219,231041.500,-2.062,-0.500,+6.688
$EULER,171219,231041.500,+108.938,-1.750,-8.625
$GPRMC,231041.600,A,3950.5356,N,10502.1578,W,17.35,108.62,191217,,,A*48
$GYRO,171219,231041.600,-1.188,+2.750,+6.625
$EULER,171219,231041.600,+108.375,-1.688,-8.500
$GPRMC,231041.700,A,3950.5356,N,10502.1570,W,17.29,108.61,191217,,,A*4F
$GYRO,171219,231041.700,+1.625,-0.562,+7.000
$EULER,171219,231041.700,+107.688,-1.750,-8.750
$GPRMC,231041.800,A,3950.5355,N,10502.1563,W,17.13,108.57,191217,,,A*4D
$GYRO,171219,231041.800,-0.938,+2.750,+6.750
$EULER,171219,231041.800,+107.000,-1.875,-8.812
$GPRMC,231041.900,A,3950.5353,N,10502.1555,W,17.08,108.48,191217,,,A*4B
$GYRO,171219,231041.900,-0.812,+1.062,+6.625
$EULER,171219,231041.900,+106.375,-2.000,-8.938
$GPRMC,231042.000,A,3950.5351,N,10502.1548,W,17.01,108.38,191217,,,A*41
$GYRO,171219,231042.000,+1.125,+0.875,+7.000
$EULER,171219,231042.000,+105.750,-2.062,-9.062
$GPRMC,231042.100,A,3950.5349,N,10502.1541,W,16.94,108.22,191217,,,A*46
$GYRO,171219,231042.100,+0.062,+0.062,+6.625
$EULER,171219,231042.100,+105.125,-2.188,-9.250
$GPRMC,231042.200,A,3950.5348,N,10502.1535,W,16.87,108.06,191217,,,A*43
$GYRO,171219,231042.200,+0.938,+0.750,+6.688
$EULER,171219,231042.200,+104.438,-2.188,-9.438
$GPRMC,231042.300,A,3950.5348,N,10502.1528,W,16.79,107.94,191217,,,A*4B
$GYRO,171219,231042.300,+0.875,+1.250,+6.625
$EULER,171219,231042.300,+103.812,-2.250,-9.688
$GPRMC,231042.400,A,3950.5347,N,10502.1522,W,16.60,107.88,191217,,,A*4C
$GYRO,171219,231042.400,+0.375,+1.625,+6.438
$EULER,171219,231042.400,+103.188,-2.438,-9.875
$GPRMC,231042.500,A,3950.5346,N,10502.1516,W,16.55,107.83,191217,,,A*46
$GYRO,171219,231042.500,+0.625,+1.188,+6.062
$EULER,171219,231042.500,+102.562,-2.438,-9.938
$GPRMC,231042.600,A,3950.5345,N,10502.1510,W,16.38,107.79,191217,,,A*4E
$GYRO,171219,231042.600,+1.312,+2.500,+5.750
$EULER,171219,231042.600,+102.000,-2.625,-10.062
$GPRMC,231042.700,A,3950.5344,N,10502.1504,W,16.31,107.82,191217,,,A*46
$GYRO,171219,231042.700,+0.562,+1.750,+5.438
$EULER,171219,231042.700,+101.438,-2.688,-10.125
$GPRMC,231042.800,A,3950.5343,N,10502.1498,W,16.10,107.87,191217,,,A*4C
$GYRO,171219,231042.800,-1.312,+1.688,+5.188
$EULER,171219,231042.800,+100.938,-2.688,-10.188
$GPRMC,231042.900,A,3950.5342,N,10502.1493,W,16.04,107.83,191217,,,A*46
$GYRO,171219,231042.900,+0.250,+2.062,+5.062
$EULER,171219,231042.900,+100.438,-2.688,-10.188
$GPRMC,231043.000,A,3950.5341,N,10502.1487,W,15.85,107.80,191217,,,A*41
$GYRO,171219,231043.000,+1.312,+0.312,+5.125
$EULER,171219,231043.000,+99.938,-2.812,-10.312
$GPRMC,231043.100,A,3950.5340,N,10502.1482,W,15.80,107.63,191217,,,A*4C
$GYRO,171219,231043.100,+2.062,+2.812,+5.000
$EULER,171219,231043.100,+99.438,-2.750,-10.438
$GPRMC,231043.200,A,3950.5339,N,10502.1477,W,15.62,107.39,191217,,,A*48
$GYRO,171219,231043.200,-3.312,-2.750,+4.750
$EULER,171219,231043.200,+98.938,-2.812,-10.562
$GPRMC,231043.300,A,3950.5338,N,10502.1472,W,15.56,107.12,191217,,,A*43
$GYRO,171219,231043.300,-2.688,+2.500,+4.375
$EULER,171219,231043.300,+98.500,-2.812,-10.562
$GPRMC,231043.400,A,3950.5338,N,10502.1467,W,15.33,106.96,191217,,,A*4E
$GYRO,171219,231043.400,+0.250,-1.125,+4.250
$EULER,171219,231043.400,+98.062,-2.812,-10.562
$GPRMC,231043.500,A,3950.5336,N,10502.1458,W,15.06,106.90,191217,,,A*4D
$GYRO,171219,231043.500,-0.562,-1.250,+3.875
$EULER,171219,231043.500,+97.688,-2.750,-10.500
$GPRMC,231043.600,A,3950.5335,N,10502.1454,W,14.82,106.91,191217,,,A*4D
$GYRO,171219,231043.600,+2.188,+3.875,+3.750
$EULER,171219,231043.600,+97.312,-2.625,-10.500
$GPRMC,231043.700,A,3950.5334,N,10502.1449,W,14.50,106.85,191217,,,A*4B
$GYRO,171219,231043.700,-0.188,-4.000,+2.500
$EULER,171219,231043.700,+97.000,-2.625,-10.500
$GPRMC,231043.800,A,3950.5334,N,10502.1446,W,14.26,106.36,191217,,,A*42
$GYRO,171219,231043.800,+0.375,+1.812,+1.875
$EULER,171219,231043.800,+96.812,-2.562,-10.312
$GPRMC,231043.900,A,3950.5333,N,10502.1441,W,14.05,106.01,191217,,,A*46
$GYRO,171219,231043.900,-0.500,+0.250,+1.062
$EULER,171219,231043.900,+96.688,-2.562,-10.312
$GPRMC,231044.000,A,3950.5333,N,10502.1439,W,13.81,105.26,191217,,,A*4A
$GYRO,171219,231044.000,-3.000,-2.688,-0.062
$EULER,171219,231044.000,+96.688,-2.438,-10.250
$GPRMC,231044.100,A,3950.5334,N,10502.1437,W,13.75,104.63,191217,,,A*49
$GYRO,171219,231044.100,-4.750,-1.875,-0.562
$EULER,171219,231044.100,+96.688,-2.438,-10.062
$GPRMC,231044.200,A,3950.5334,N,10502.1434,W,13.50,104.20,191217,,,A*49
$GYRO,171219,231044.200,-3.938,-0.062,-0.750
$EULER,171219,231044.200,+96.688,-2.688,-9.938
$GPRMC,231044.300,A,3950.5335,N,10502.1432,W,13.24,103.59,191217,,,A*45
$GYRO,171219,231044.300,-0.500,+0.375,-0.688
$EULER,171219,231044.300,+96.750,-2.750,-9.875
$GPRMC,231044.400,A,3950.5336,N,10502.1430,W,13.01,103.04,191217,,,A*4C
$GYRO,171219,231044.400,+0.562,-0.625,-1.062
$EULER,171219,231044.400,+96.875,-3.000,-9.750
$GPRMC,231044.500,A,3950.5336,N,10502.1428,W,12.83,102.50,191217,,,A*4F
$GYRO,171219,231044.500,-0.938,+0.125,-1.312
$EULER,171219,231044.500,+97.062,-3.312,-9.625
$GPRMC,231044.600,A,3950.5337,N,10502.1426,W,12.61,102.01,191217,,,A*4B
$GYRO,171219,231044.600,-2.250,-1.312,-1.188
$EULER,171219,231044.600,+97.188,-3.750,-9.438
$GPRMC,231044.700,A,3950.5337,N,10502.1425,W,12.31,101.48,191217,,,A*42
$GYRO,171219,231044.700,-1.500,+0.250,-1.188
$EULER,171219,231044.700,+97.312,-4.250,-9.250
$GPRMC,231044.800,A,3950.5340,N,10502.1429,W,11.99,100.99,191217,,,A*4D
$GYRO,171219,231044.800,+0.062,+0.562,-1.062
$EULER,171219,231044.800,+97.438,-4.188,-9.125
$GPRMC,231044.900,A,3950.5345,N,10502.1429,W,11.65,100.38,191217,,,A*41
$GYRO,171219,231044.900,-0.562,+2.125,-1.062
$EULER,171219,231044.900,+97.562,-4.250,-9.062
$GPRMC,231045.000,A,3950.5348,N,10502.1428,W,11.58,99.65,191217,,,A*72
$GYRO,171219,231045.000,+0.125,-1.438,-0.812
$EULER,171219,231045.000,+97.625,-4.500,-9.000
$GPRMC,231045.100,A,3950.5351,N,10502.1425,W,11.52,99.10,191217,,,A*7E
$GYRO,171219,231045.100,-0.750,+0.750,-1.062
$EULER,171219,231045.100,+97.750,-5.000,-8.938
$GPRMC,231045.200,A,3950.5352,N,10502.1423,W,11.47,98.72,191217,,,A*79
$GYRO,171219,231045.200,+0.062,-2.250,-1.000
$EULER,171219,231045.200,+97.875,-5.062,-8.875
$GPRMC,231045.300,A,3950.5353,N,10502.1420,W,11.41,98.41,191217,,,A*7C
$GYRO,171219,231045.300,-2.250,+1.438,-1.062
$EULER,171219,231045.300,+97.938,-5.000,-8.750
$GPRMC,231045.400,A,3950.5352,N,10502.1417,W,11.21,98.25,191217,,,A*7A
$GYRO,171219,231045.400,-1.062,+0.062,-0.938
$EULER,171219,231045.400,+98.000,-5.062,-8.688
$GPRMC,231045.500,A,3950.5350,N,10502.1414,W,11.02,97.81,191217,,,A*7A
$GYRO,171219,231045.500,-1.125,+0.188,-0.875
$EULER,171219,231045.500,+98.062,-5.062,-8.562
$GPRMC,231045.600,A,3950.5348,N,10502.1411,W,10.76,97.50,191217,,,A*7B
$GYRO,171219,231045.600,+0.562,+0.875,-0.875
$EULER,171219,231045.600,+98.188,-5.625,-8.500
$GPRMC,231045.700,A,3950.5347,N,10502.1407,W,10.56,97.23,191217,,,A*74
$GYRO,171219,231045.700,+1.688,-0.312,-0.500
$EULER,171219,231045.700,+98.312,-6.500,-8.438
$GPRMC,231045.800,A,3950.5346,N,10502.1404,W,10.33,97.36,191217,,,A*7E
$GYRO,171219,231045.800,-0.312,+2.000,-0.750
$EULER,171219,231045.800,+98.375,-6.625,-8.438
$GPRMC,231045.900,A,3950.5345,N,10502.1401,W,10.07,97.29,191217,,,A*70
$GYRO,171219,231045.900,+0.188,+0.875,-0.625
$EULER,171219,231045.900,+98.438,-6.688,-8.438
$GPRMC,231046.000,A,3950.5344,N,10502.1398,W,9.84,97.19,191217,,,A*4C
$GYRO,171219,231046.000,+0.000,+0.312,-0.750
$EULER,171219,231046.000,+98.438,-6.750,-8.438
$GPRMC,231046.100,A,3950.5344,N,10502.1395,W,9.79,97.02,191217,,,A*48
$GYRO,171219,231046.100,-0.938,-0.125,-0.625
$EULER,171219,231046.100,+98.500,-7.000,-8.375
$GPRMC,231046.200,A,3950.5344,N,10502.1392,W,9.63,97.00,191217,,,A*45
$GYRO,171219,231046.200,-0.875,+0.438,-0.500
$EULER,171219,231046.200,+98.562,-7.875,-8.312
$GPRMC,231046.300,A,3950.5343,N,10502.1389,W,9.46,97.02,191217,,,A*4C
$GYRO,171219,231046.300,-0.562,-0.125,-0.500
$EULER,171219,231046.300,+98.625,-8.625,-8.250
$GPRMC,231046.400,A,3950.5343,N,10502.1386,W,9.24,96.96,191217,,,A*4C
$GYRO,171219,231046.400,-1.062,+1.188,-0.562
$EULER,171219,231046.400,+98.688,-8.688,-8.188
$GPRMC,231046.500,A,3950.5343,N,10502.1383,W,9.06,96.67,191217,,,A*46
$GYRO,171219,231046.500,-0.188,-0.375,-0.250
$EULER,171219,231046.500,+98.688,-9.125,-8.062
$GPRMC,231046.600,A,3950.5343,N,10502.1380,W,8.89,96.16,191217,,,A*46
$GYRO,171219,231046.600,+0.688,+0.312,-0.312
$EULER,171219,231046.600,+98.750,-9.812,-8.062
$GPRMC,231046.700,A,3950.5343,N,10502.1378,W,8.72,95.84,191217,,,A*4C
$GYRO,171219,231046.700,+0.750,-0.062,-0.188
$EULER,171219,231046.700,+98.875,-11.062,-8.062
$GPRMC,231046.800,A,3950.5342,N,10502.1376,W,8.37,96.24,191217,,,A*44
$GYRO,171219,231046.800,-0.125,+0.312,-0.250
$EULER,171219,231046.800,+98.938,-11.938,-8.062
$GPRMC,231046.900,A,3950.5342,N,10502.1374,W,8.05,96.44,191217,,,A*40
$GYRO,171219,231046.900,-0.375,-0.062,-0.125
$EULER,171219,231046.900,+98.938,-12.062,-8.000
$GPRMC,231047.000,A,3950.5342,N,10502.1372,W,7.78,96.45,191217,,,A*4A
$GYRO,171219,231047.000,+1.062,-0.562,-0.062
$EULER,171219,231047.000,+98.938,-12.062,-8.000
$GPRMC,231047.100,A,3950.5341,N,10502.1369,W,7.71,96.38,191217,,,A*41
$GYRO,171219,231047.100,-0.312,-0.250,-0.188
$EULER,171219,231047.100,+98.938,-12.062,-8.062
$GPRMC,231047.200,A,3950.5341,N,10502.1367,W,7.65,96.14,191217,,,A*47
$GYRO,171219,231047.200,-0.188,+0.062,+0.062
$EULER,171219,231047.200,+98.938,-12.062,-8.000
$GPRMC,231047.300,A,3950.5340,N,10502.1365,W,7.37,95.98,191217,,,A*45
$GYRO,171219,231047.300,+0.062,+0.000,-0.125
$EULER,171219,231047.300,+98.938,-12.000,-7.938
$GPRMC,231047.400,A,3950.5340,N,10502.1363,W,7.09,96.12,191217,,,A*48
$GYRO,171219,231047.400,+0.250,-0.125,-0.125
$EULER,171219,231047.400,+98.938,-11.938,-7.938
$GPRMC,231047.500,A,3950.5339,N,10502.1361,W,6.89,95.99,191217,,,A*4C
$GYRO,171219,231047.500,-0.250,+0.062,+0.000
$EULER,171219,231047.500,+98.938,-11.938,-7.938
$GPRMC,231047.600,A,3950.5339,N,10502.1359,W,6.67,95.81,191217,,,A*4D
$GYRO,171219,231047.600,-0.062,-1.188,+0.125
$EULER,171219,231047.600,+98.938,-11.812,-7.938
$GPRMC,231047.700,A,3950.5339,N,10502.1358,W,6.26,96.53,191217,,,A*44
$GYRO,171219,231047.700,+0.125,-0.750,+0.062
$EULER,171219,231047.700,+98.875,-10.500,-7.875
$GPRMC,231047.800,A,3950.5339,N,10502.1356,W,6.05,96.48,191217,,,A*4E
$GYRO,171219,231047.800,+0.000,+0.688,-0.062
$EULER,171219,231047.800,+98.750,-9.312,-7.875
$GPRMC,231047.900,A,3950.5337,N,10502.1353,W,5.98,96.01,191217,,,A*4E
$GYRO,171219,231047.900,-0.125,-0.188,+0.188
$EULER,171219,231047.900,+98.688,-7.688,-7.812
$GPRMC,231048.000,A,3950.5336,N,10502.1351,W,5.48,96.41,191217,,,A*42
$GYRO,171219,231048.000,+0.125,+0.188,-0.062
$EULER,171219,231048.000,+98.625,-6.688,-7.750
$GPRMC,231048.100,A,3950.5336,N,10502.1348,W,5.46,95.89,191217,,,A*42
$GYRO,171219,231048.100,+0.000,+0.062,+0.125
$EULER,171219,231048.100,+98.562,-6.062,-7.750
$GPRMC,231048.200,A,3950.5335,N,10502.1346,W,5.26,96.05,191217,,,A*4D
$GYRO,171219,231048.200,+0.062,-0.125,+0.062
$EULER,171219,231048.200,+98.500,-5.625,-7.750
$GPRMC,231048.300,A,3950.5335,N,10502.1344,W,5.18,96.02,191217,,,A*44
$GYRO,171219,231048.300,-0.188,-0.312,+0.125
$EULER,171219,231048.300,+98.500,-5.062,-7.688
$GPRMC,231048.400,A,3950.5334,N,10502.1343,W,4.94,95.69,191217,,,A*4E
$GYRO,171219,231048.400,-0.375,-0.312,+0.000
$EULER,171219,231048.400,+98.438,-4.562,-7.688
$GPRMC,231048.500,A,3950.5334,N,10502.1341,W,4.88,95.71,191217,,,A*49
$GYRO,171219,231048.500,+0.500,+0.062,+0.125
$EULER,171219,231048.500,+98.438,-3.938,-7.688
$GPRMC,231048.600,A,3950.5333,N,10502.1340,W,4.65,95.92,191217,,,A*42
$GYRO,171219,231048.600,+0.375,-0.625,+0.125
$EULER,171219,231048.600,+98.375,-2.938,-7.688
$GPRMC,231048.700,A,3950.5333,N,10502.1339,W,4.48,96.18,191217,,,A*43
$GYRO,171219,231048.700,+0.812,-1.250,+0.312
