
$GPRMC,152857.800,A,3950.5094,N,10503.2892,W,28.41,270.62,141217,,,D*42
$GPRMC,152858.000,A,3950.5094,N,10503.2913,W,28.63,270.79,141217,,,D*47
$GPRMC,152858.200,A,3950.5094,N,10503.2934,W,28.61,270.67,141217,,,D*4D
$GPRMC,152858.400,A,3950.5095,N,10503.2956,W,28.64,270.59,141217,,,D*46
$GPRMC,152858.600,A,3950.5095,N,10503.2977,W,28.70,270.47,141217,,,D*4D
$GPRMC,152858.800,A,3950.5095,N,10503.2999,W,28.76,270.30,141217,,,D*45
$GPRMC,152859.000,A,3950.5095,N,10503.3020,W,28.84,270.07,141217,,,D*4F
$GPRMC,152859.200,A,3950.5095,N,10503.3042,W,29.05,269.97,141217,,,D*40
$GPRMC,152859.400,A,3950.5095,N,10503.3063,W,29.12,270.08,141217,,,D*4D
$GPRMC,152859.600,A,3950.5096,N,10503.3085,W,29.41,270.29,141217,,,D*41
$GPRMC,152859.800,A,3950.5096,N,10503.3106,W,29.64,270.60,141217,,,D*4F
$GPRMC,152900.000,A,3950.5097,N,10503.3128,W,29.81,270.63,141217,,,D*4F
$GPRMC,152900.200,A,3950.5097,N,10503.3150,W,30.05,270.61,141217,,,D*44
$GPRMC,152900.400,A,3950.5097,N,10503.3172,W,30.34,270.65,141217,,,D*44
$GPRMC,152900.600,A,3950.5098,N,10503.3195,W,30.56,270.47,141217,,,D*44
$GPRMC,152900.800,A,3950.5098,N,10503.3217,W,30.76,270.22,141217,,,D*42
$GPRMC,152901.000,A,3950.5098,N,10503.3239,W,30.97,270.23,141217,,,D*49
$GPRMC,152901.200,A,3950.5098,N,10503.3261,W,31.21,270.30,141217,,,D*48
$GPRMC,152901.400,A,3950.5099,N,10503.3284,W,31.23,270.25,141217,,,D*42
$GPRMC,152901.600,A,3950.5099,N,10503.3307,W,31.36,270.21,141217,,,D*4A
$GPRMC,152901.800,A,3950.5098,N,10503.3330,W,32.03,270.13,141217,,,D*45
$GPRMC,152902.000,A,3950.5098,N,10503.3354,W,32.36,269.94,141217,,,D*4D
$GPRMC,152902.200,A,3950.5098,N,10503.3378,W,32.62,269.91,141217,,,D*45
$GPRMC,152902.400,A,3950.5098,N,10503.3402,W,32.90,269.75,141217,,,D*4E
$GPRMC,152902.600,A,3950.5097,N,10503.3426,W,33.17,269.50,141217,,,D*4C
$GPRMC,152902.800,A,3950.5097,N,10503.3451,W,33.39,269.42,141217,,,D*4D
$GPRMC,152903.000,A,3950.5097,N,10503.3475,W,33.66,269.34,141217,,,D*49
$GPRMC,152903.200,A,3950.5096,N,10503.3500,W,33.89,269.35,141217,,,D*49
$GPRMC,152903.400,A,3950.5096,N,10503.3525,W,33.94,269.51,141217,,,D*46
$GPRMC,152903.600,A,3950.5096,N,10503.3550,W,34.08,269.55,141217,,,D*40
$GPRMC,152903.800,A,3950.5095,N,10503.3576,W,34.19,269.68,141217,,,D*47
$GPRMC,152904.000,A,3950.5095,N,10503.3601,W,34.29,269.86,141217,,,D*48
$GPRMC,152904.200,A,3950.5095,N,10503.3626,W,34.37,269.96,141217,,,D*41
$GPRMC,152904.400,A,3950.5095,N,10503.3651,W,35.19,270.05,141217,,,D*48
$GPRMC,152904.600,A,3950.5095,N,10503.3677,W,35.47,270.41,141217,,,D*45
$GPRMC,152904.800,A,3950.5095,N,10503.3702,W,35.70,270.46,141217,,,D*4B
$GPRMC,152905.000,A,3950.5095,N,10503.3728,W,35.97,270.74,141217,,,D*42
$GPRMC,152905.200,A,3950.5095,N,10503.3754,W,36.13,270.76,141217,,,D*46
$GPRMC,152905.400,A,3950.5096,N,10503.3781,W,36.20,270.82,141217,,,D*40
$GPRMC,152905.600,A,3950.5096,N,10503.3807,W,36.42,270.75,141217,,,D*4F
$GPRMC,152905.800,A,3950.5097,N,10503.3834,W,36.60,270.76,141217,,,D*43
$GPRMC,152906.000,A,3950.5097,N,10503.3861,W,36.85,270.72,141217,,,D*47
$GPRMC,152906.200,A,3950.5097,N,10503.3887,W,37.02,270.53,141217,,,D*40
$GPRMC,152906.400,A,3950.5098,N,10503.3914,W,37.24,270.28,141217,,,D*4A
$GPRMC,152906.600,A,3950.5098,N,10503.3941,W,37.41,270.19,141217,,,D*49
$GPRMC,152906.800,A,3950.5098,N,10503.3968,W,37.62,270.19,141217,,,D*4D
$GPRMC,152907.000,A,3950.5098,N,10503.3996,W,37.65,270.20,141217,,,D*48
$GPRMC,152907.200,A,3950.5099,N,10503.4023,W,37.76,270.21,141217,,,D*48
$GPRMC,152907.400,A,3950.5099,N,10503.4051,W,37.85,270.32,141217,,,D*45
$GPRMC,152907.600,A,3950.5099,N,10503.4079,W,38.14,270.21,141217,,,D*48
$GPRMC,152907.800,A,3950.5098,N,10503.4107,W,38.13,269.92,141217,,,D*48
$GPRMC,152908.000,A,3950.5098,N,10503.4134,W,38.06,269.56,141217,,,D*43
$GPRMC,152908.200,A,3950.5098,N,10503.4161,W,37.84,269.41,141217,,,D*42
$GPRMC,152908.400,A,3950.5097,N,10503.4189,W,37.62,269.37,141217,,,D*44
$GPRMC,152908.600,A,3950.5097,N,10503.4216,W,37.75,269.57,141217,,,D*43
$GPRMC,152908.800,A,3950.5096,N,10503.4243,W,37.61,269.48,141217,,,D*47
$GPRMC,152909.000,A,3950.5096,N,10503.4270,W,36.83,269.27,141217,,,D*4A
$GPRMC,152909.200,A,3950.5096,N,10503.4296,W,36.76,269.38,141217,,,D*44
$GPRMC,152909.400,A,3950.5095,N,10503.4323,W,36.69,269.50,141217,,,D*4E
$GPRMC,152909.600,A,3950.5095,N,10503.4350,W,36.54,269.53,141217,,,D*45
$GPRMC,152909.800,A,3950.5095,N,10503.4376,W,36.52,269.73,141217,,,D*4B
$GPRMC,152910.000,A,3950.5095,N,10503.4403,W,36.49,269.92,141217,,,D*4B
$GPRMC,152910.200,A,3950.5095,N,10503.4430,W,36.46,269.83,141217,,,D*46
$GPRMC,152910.400,A,3950.5095,N,10503.4456,W,36.49,269.84,141217,,,D*48
$GPRMC,152910.600,A,3950.5095,N,10503.4483,W,36.57,269.83,141217,,,D*4A
$GPRMC,152910.800,A,3950.5095,N,10503.4510,W,36.77,269.88,141217,,,D*46
$GPRMC,152911.000,A,3950.5095,N,10503.4536,W,36.83,270.06,141217,,,D*4E
$GPRMC,152911.200,A,3950.5095,N,10503.4563,W,36.89,270.15,141217,,,D*44
$GPRMC,152911.400,A,3950.5096,N,10503.4590,W,36.96,270.33,141217,,,D*47
$GPRMC,152911.600,A,3950.5096,N,10503.4616,W,37.18,270.26,141217,,,D*4B
$GPRMC,152911.800,A,3950.5096,N,10503.4643,W,37.26,270.29,141217,,,D*47
$GPRMC,152912.000,A,3950.5096,N,10503.4670,W,37.47,270.09,141217,,,D*49
$GPRMC,152912.200,A,3950.5096,N,10503.4697,W,37.51,270.04,141217,,,D*48
$GPRMC,152912.400,A,3950.5096,N,10503.4724,W,37.55,270.02,141217,,,D*45
$GPRMC,152912.600,A,3950.5096,N,10503.4752,W,37.61,270.01,141217,,,D*42
$GPRMC,152912.800,A,3950.5096,N,10503.4779,W,37.65,269.97,141217,,,D*46
$GPRMC,152913.000,A,3950.5097,N,10503.4806,W,37.69,270.09,141217,,,D*4A
$GPRMC,152913.200,A,3950.5097,N,10503.4833,W,37.75,270.20,141217,,,D*48
$GPRMC,152913.400,A,3950.5097,N,10503.4860,W,37.94,270.37,141217,,,D*41
$GPRMC,152913.600,A,3950.5097,N,10503.4888,W,38.00,270.34,141217,,,D*44
$GPRMC,152913.800,A,3950.5098,N,10503.4915,W,38.05,270.40,141217,,,D*46
$GPRMC,152914.000,A,3950.5098,N,10503.4943,W,38.08,270.41,141217,,,D*46
$GPRMC,152914.200,A,3950.5098,N,10503.4971,W,38.13,270.32,141217,,,D*4B
$GPRMC,152914.400,A,3950.5098,N,10503.4999,W,38.15,270.19,141217,,,D*44
$GPRMC,152914.600,A,3950.5098,N,10503.5027,W,38.20,270.06,141217,,,D*43
$GPRMC,152914.800,A,3950.5098,N,10503.5055,W,38.25,270.10,141217,,,D*4A
$GPRMC,152915.000,A,3950.5099,N,10503.5083,W,38.30,270.07,141217,,,D*4B
$GPRMC,152915.200,A,3950.5098,N,10503.5111,W,38.46,270.09,141217,,,D*4D
$GPRMC,152915.400,A,3950.5099,N,10503.5139,W,38.52,270.16,141217,,,D*4B
$GPRMC,152915.600,A,3950.5099,N,10503.5167,W,38.58,270.43,141217,,,D*48
$GPRMC,152915.800,A,3950.5099,N,10503.5195,W,38.79,270.52,141217,,,D*48
$GPRMC,152916.000,A,3950.5099,N,10503.5223,W,38.85,270.33,141217,,,D*49
$GPRMC,152916.200,A,3950.5099,N,10503.5251,W,38.88,270.30,141217,,,D*40
$GPRMC,152916.400,A,3950.5099,N,10503.5280,W,38.91,270.10,141217,,,D*40
$GPRMC,152916.600,A,3950.5099,N,10503.5308,W,38.95,269.88,141217,,,D*4E
$GPRMC,152916.800,A,3950.5099,N,10503.5336,W,38.96,269.81,141217,,,D*47
$GPRMC,152917.000,A,3950.5098,N,10503.5365,W,38.98,269.83,141217,,,D*45
$GPRMC,152917.200,A,3950.5098,N,10503.5393,W,38.97,269.75,141217,,,D*48
$GPRMC,152917.400,A,3950.5098,N,10503.5422,W,38.97,269.70,141217,,,D*46
$GPRMC,152917.600,A,3950.5098,N,10503.5450,W,38.99,269.57,141217,,,D*4A
$GPRMC,152917.800,A,3950.5098,N,10503.5478,W,39.03,269.57,141217,,,D*4C
$GPRMC,152918.000,A,3950.5098,N,10503.5507,W,39.07,269.38,141217,,,D*4F
$GPRMC,152918.200,A,3950.5098,N,10503.5535,W,39.11,269.29,141217,,,D*4B
$GPRMC,152918.400,A,3950.5097,N,10503.5564,W,39.16,269.12,141217,,,D*49
$GPRMC,152918.600,A,3950.5097,N,10503.5592,W,39.22,268.89,141217,,,D*46
$GPRMC,152918.800,A,3950.5097,N,10503.5621,W,39.26,268.65,141217,,,D*45
$GPRMC,152919.000,A,3950.5096,N,10503.5649,W,39.33,268.50,141217,,,D*41
$GPRMC,152919.200,A,3950.5096,N,10503.5678,W,39.38,268.45,141217,,,D*4E
$GPRMC,152919.400,A,3950.5095,N,10503.5706,W,39.44,268.33,141217,,,D*49
$GPRMC,152919.600,A,3950.5095,N,10503.5734,W,39.50,268.40,141217,,,D*4B
$GPRMC,152919.800,A,3950.5094,N,10503.5763,W,39.71,268.34,141217,,,D*46
$GPRMC,152920.000,A,3950.5093,N,10503.5791,W,39.68,268.15,141217,,,D*45
$GPRMC,152920.200,A,3950.5093,N,10503.5820,W,39.68,267.98,141217,,,D*48
$GPRMC,152920.400,A,3950.5092,N,10503.5848,W,39.74,267.55,141217,,,D*4D
$GPRMC,152920.600,A,3950.5091,N,10503.5877,W,39.76,267.13,141217,,,D*40
$GPRMC,152920.800,A,3950.5089,N,10503.5906,W,39.73,266.62,141217,,,D*42
$GPRMC,152921.000,A,3950.5088,N,10503.5934,W,39.75,266.02,141217,,,D*4B
$GPRMC,152921.200,A,3950.5086,N,10503.5963,W,39.78,265.67,141217,,,D*48
$GPRMC,152921.400,A,3950.5084,N,10503.5992,W,40.07,264.99,141217,,,D*44
$GPRMC,152921.600,A,3950.5081,N,10503.6021,W,40.11,264.16,141217,,,D*41
$GPRMC,152921.800,A,3950.5079,N,10503.6050,W,40.13,263.54,141217,,,D*4D
$GPRMC,152922.000,A,3950.5077,N,10503.6079,W,40.15,263.15,141217,,,D*40
$GPRMC,152922.200,A,3950.5074,N,10503.6108,W,40.18,262.88,141217,,,D*4E
$GPRMC,152922.400,A,3950.5071,N,10503.6137,W,40.19,262.36,141217,,,D*45
$GPRMC,152922.600,A,3950.5068,N,10503.6166,W,40.20,262.07,141217,,,D*43
$GPRMC,152922.800,A,3950.5065,N,10503.6194,W,40.19,261.59,141217,,,D*4F
$GPRMC,152923.000,A,3950.5061,N,10503.6223,W,40.20,261.35,141217,,,D*4D
$GPRMC,152923.200,A,3950.5058,N,10503.6252,W,40.22,260.94,141217,,,D*4B
$GPRMC,152923.400,A,3950.5054,N,10503.6281,W,40.26,260.44,141217,,,D*46
$GPRMC,152923.600,A,3950.5050,N,10503.6310,W,40.29,260.00,141217,,,D*46
$GPRMC,152923.800,A,3950.5046,N,10503.6339,W,40.33,259.69,141217,,,D*4A
$GPRMC,152924.000,A,3950.5042,N,10503.6368,W,40.36,259.40,141217,,,D*4B
$GPRMC,152924.200,A,3950.5037,N,10503.6397,W,40.42,259.24,141217,,,D*4A
$GPRMC,152924.400,A,3950.5033,N,10503.6426,W,40.65,258.78,141217,,,D*48
$GPRMC,152924.600,A,3950.5028,N,10503.6455,W,40.71,258.46,141217,,,D*4C
$GPRMC,152924.800,A,3950.5023,N,10503.6484,W,40.89,258.09,141217,,,D*49
$GPRMC,152925.000,A,3950.5018,N,10503.6513,W,40.96,257.68,141217,,,D*41
$GPRMC,152925.200,A,3950.5013,N,10503.6542,W,40.99,257.36,141217,,,D*48
$GPRMC,152925.400,A,3950.5008,N,10503.6571,W,41.02,256.93,141217,,,D*49
$GPRMC,152925.600,A,3950.5002,N,10503.6600,W,41.04,256.54,141217,,,D*49
$GPRMC,152925.800,A,3950.4996,N,10503.6629,W,41.09,256.24,141217,,,D*43
$GPRMC,152926.000,A,3950.4991,N,10503.6658,W,41.12,255.96,141217,,,D*49
$GPRMC,152926.200,A,3950.4985,N,10503.6686,W,41.15,255.52,141217,,,D*42
$GPRMC,152926.400,A,3950.4978,N,10503.6715,W,41.19,254.76,141217,,,D*46
$GPRMC,152926.600,A,3950.4972,N,10503.6743,W,41.23,254.22,141217,,,D*45
$GPRMC,152926.800,A,3950.4965,N,10503.6772,W,41.24,254.00,141217,,,D*48
$GPRMC,152927.000,A,3950.4959,N,10503.6800,W,41.23,253.62,141217,,,D*40
$GPRMC,152927.200,A,3950.4952,N,10503.6829,W,41.20,253.38,141217,,,D*4E
$GPRMC,152927.400,A,3950.4945,N,10503.6857,W,41.16,252.81,141217,,,D*41
$GPRMC,152927.600,A,3950.4938,N,10503.6885,W,41.11,252.10,141217,,,D*49
$GPRMC,152927.800,A,3950.4931,N,10503.6913,W,41.05,251.74,141217,,,D*44
$GPRMC,152928.000,A,3950.4923,N,10503.6941,W,41.01,251.55,141217,,,D*40
$GPRMC,152928.200,A,3950.4916,N,10503.6969,W,40.96,251.33,141217,,,D*41
$GPRMC,152928.400,A,3950.4909,N,10503.6997,W,40.94,251.10,141217,,,D*4B
$GPRMC,152928.600,A,3950.4901,N,10503.7026,W,40.95,251.02,141217,,,D*41
$GPRMC,152928.800,A,3950.4894,N,10503.7053,W,40.94,251.05,141217,,,D*46
$GPRMC,152929.000,A,3950.4886,N,10503.7082,W,40.94,250.99,141217,,,D*44
$GPRMC,152929.200,A,3950.4878,N,10503.7110,W,40.95,251.01,141217,,,D*4C
$GPRMC,152929.400,A,3950.4871,N,10503.7138,W,40.96,251.15,141217,,,D*4F
$GPRMC,152929.600,A,3950.4864,N,10503.7166,W,40.99,251.41,141217,,,D*4C
$GPRMC,152929.800,A,3950.4856,N,10503.7194,W,41.03,251.56,141217,,,D*4A
$GPRMC,152930.000,A,3950.4849,N,10503.7222,W,41.04,251.79,141217,,,D*40
$GPRMC,152930.200,A,3950.4842,N,10503.7251,W,41.05,252.00,141217,,,D*41
$GPRMC,152930.400,A,3950.4835,N,10503.7279,W,41.04,252.28,141217,,,D*46
$GPRMC,152930.600,A,3950.4828,N,10503.7307,W,41.02,252.55,141217,,,D*4C
$GPRMC,152930.800,A,3950.4822,N,10503.7335,W,40.98,253.31,141217,,,D*48
$GPRMC,152931.000,A,3950.4815,N,10503.7364,W,40.93,254.04,141217,,,D*4B
$GPRMC,152931.200,A,3950.4809,N,10503.7392,W,40.87,254.51,141217,,,D*48
$GPRMC,152931.400,A,3950.4804,N,10503.7420,W,40.66,255.34,141217,,,D*40
$GPRMC,152931.600,A,3950.4799,N,10503.7449,W,40.71,256.31,141217,,,D*46
$GPRMC,152931.800,A,3950.4794,N,10503.7478,W,40.78,256.82,141217,,,D*46
$GPRMC,152932.000,A,3950.4789,N,10503.7507,W,41.03,257.33,141217,,,D*4E
$GPRMC,152932.200,A,3950.4784,N,10503.7537,W,41.19,257.56,141217,,,D*4A
$GPRMC,152932.400,A,3950.4779,N,10503.7566,W,41.26,258.02,141217,,,D*48
$GPRMC,152932.600,A,3950.4774,N,10503.7595,W,41.31,258.45,141217,,,D*4E
$GPRMC,152932.800,A,3950.4770,N,10503.7625,W,41.31,258.90,141217,,,D*44
$GPRMC,152933.000,A,3950.4766,N,10503.7654,W,41.24,259.41,141217,,,D*45
$GPRMC,152933.200,A,3950.4762,N,10503.7684,W,41.07,259.67,141217,,,D*4B
$GPRMC,152933.400,A,3950.4758,N,10503.7713,W,41.05,260.03,141217,,,D*41
$GPRMC,152933.600,A,3950.4755,N,10503.7743,W,41.09,260.56,141217,,,D*47
$GPRMC,152933.800,A,3950.4752,N,10503.7773,W,41.13,260.82,141217,,,D*4F
$GPRMC,152934.000,A,3950.4748,N,10503.7802,W,41.09,260.92,141217,,,D*48
$GPRMC,152934.200,A,3950.4745,N,10503.7832,W,41.08,261.10,141217,,,D*4E
$GPRMC,152934.400,A,3950.4742,N,10503.7861,W,41.10,261.18,141217,,,D*48
$GPRMC,152934.600,A,3950.4739,N,10503.7891,W,41.10,261.60,141217,,,D*46
$GPRMC,152934.800,A,3950.4736,N,10503.7920,W,41.12,262.07,141217,,,D*4C
$GPRMC,152935.000,A,3950.4734,N,10503.7950,W,41.17,262.53,141217,,,D*44
$GPRMC,152935.200,A,3950.4731,N,10503.7980,W,41.21,263.05,141217,,,D*49
$GPRMC,152935.400,A,3950.4729,N,10503.8011,W,41.42,263.87,141217,,,D*47
$GPRMC,152935.600,A,3950.4728,N,10503.8041,W,41.42,264.52,141217,,,D*4E
$GPRMC,152935.800,A,3950.4726,N,10503.8071,W,41.38,265.11,141217,,,D*46
$GPRMC,152936.000,A,3950.4725,N,10503.8101,W,41.38,265.60,141217,,,D*4E
$GPRMC,152936.200,A,3950.4723,N,10503.8131,W,41.37,265.88,141217,,,D*40
$GPRMC,152936.400,A,3950.4722,N,10503.8161,W,41.37,266.35,141217,,,D*47
$GPRMC,152936.600,A,3950.4721,N,10503.8191,W,41.41,266.59,141217,,,D*42
$GPRMC,152936.800,A,3950.4720,N,10503.8221,W,41.58,266.89,141217,,,D*40
$GPRMC,152937.000,A,3950.4719,N,10503.8251,W,41.57,267.20,141217,,,D*49
$GPRMC,152937.200,A,3950.4718,N,10503.8281,W,41.56,267.33,141217,,,D*44
$GPRMC,152937.400,A,3950.4717,N,10503.8312,W,41.54,267.62,141217,,,D*40
$GPRMC,152937.600,A,3950.4716,N,10503.8342,W,41.56,267.96,141217,,,D*4F
$GPRMC,152937.800,A,3950.4715,N,10503.8372,W,41.61,268.23,141217,,,D*44
$GPRMC,152938.000,A,3950.4715,N,10503.8403,W,41.63,268.25,141217,,,D*46
$GPRMC,152938.200,A,3950.4714,N,10503.8433,W,41.66,268.32,141217,,,D*45
$GPRMC,152938.400,A,3950.4713,N,10503.8463,W,41.70,268.53,141217,,,D*41
$GPRMC,152938.600,A,3950.4713,N,10503.8494,W,41.69,268.65,141217,,,D*46
$GPRMC,152938.800,A,3950.4712,N,10503.8524,W,41.46,268.71,141217,,,D*4B
$GPRMC,152939.000,A,3950.4712,N,10503.8554,W,41.43,268.79,141217,,,D*48
$GPRMC,152939.200,A,3950.4711,N,10503.8584,W,41.46,269.00,141217,,,D*4E
$GPRMC,152939.400,A,3950.4711,N,10503.8613,W,41.50,269.19,141217,,,D*4A
$GPRMC,152939.600,A,3950.4711,N,10503.8644,W,41.55,269.24,141217,,,D*41
$GPRMC,152939.800,A,3950.4710,N,10503.8674,W,41.80,269.32,141217,,,D*42
$GPRMC,152940.000,A,3950.4710,N,10503.8704,W,41.86,269.29,141217,,,D*4E
$GPRMC,152940.200,A,3950.4710,N,10503.8734,W,41.93,269.24,141217,,,D*46
$GPRMC,152940.400,A,3950.4709,N,10503.8764,W,41.95,269.01,141217,,,D*4C
$GPRMC,152940.600,A,3950.4709,N,10503.8795,W,42.01,268.92,141217,,,D*45
$GPRMC,152940.800,A,3950.4708,N,10503.8825,W,42.04,268.79,141217,,,D*4E
$GPRMC,152941.000,A,3950.4708,N,10503.8855,W,42.06,268.72,141217,,,D*49
$GPRMC,152941.200,A,3950.4707,N,10503.8885,W,42.07,268.68,141217,,,D*43
$GPRMC,152941.400,A,3950.4706,N,10503.8916,W,42.11,268.54,141217,,,D*47
$GPRMC,152941.600,A,3950.4706,N,10503.8946,W,42.15,268.58,141217,,,D*48
$GPRMC,152941.800,A,3950.4705,N,10503.8977,W,42.32,268.78,141217,,,D*40
$GPRMC,152942.000,A,3950.4705,N,10503.9007,W,42.40,269.01,141217,,,D*4E
$GPRMC,152942.200,A,3950.4705,N,10503.9038,W,42.57,269.07,141217,,,D*40
$GPRMC,152942.400,A,3950.4704,N,10503.9069,W,42.76,269.14,141217,,,D*42
$GPRMC,152942.600,A,3950.4704,N,10503.9099,W,42.76,269.26,141217,,,D*4E
$GPRMC,152942.800,A,3950.4704,N,10503.9130,W,42.75,269.30,141217,,,D*46
$GPRMC,152943.000,A,3950.4704,N,10503.9161,W,42.73,269.36,141217,,,D*4B
$GPRMC,152943.200,A,3950.4704,N,10503.9191,W,42.72,269.51,141217,,,D*46
$GPRMC,152943.400,A,3950.4704,N,10503.9222,W,42.72,269.62,141217,,,D*4B
$GPRMC,152943.600,A,3950.4704,N,10503.9253,W,42.72,269.74,141217,,,D*48
$GPRMC,152943.800,A,3950.4704,N,10503.9283,W,42.74,269.63,141217,,,D*4B
$GPRMC,152944.000,A,3950.4704,N,10503.9313,W,42.75,269.74,141217,,,D*4B
$GPRMC,152944.200,A,3950.4704,N,10503.9344,W,42.76,269.85,141217,,,D*46
$GPRMC,152944.400,A,3950.4705,N,10503.9375,W,42.75,270.00,141217,,,D*45
$GPRMC,152944.600,A,3950.4705,N,10503.9405,W,42.70,270.34,141217,,,D*45
$GPRMC,152944.800,A,3950.4706,N,10503.9436,W,42.43,270.55,141217,,,D*4F
$GPRMC,152945.000,A,3950.4707,N,10503.9467,W,42.40,271.00,141217,,,D*41
$GPRMC,152945.200,A,3950.4708,N,10503.9497,W,42.21,271.31,141217,,,D*46
$GPRMC,152945.400,A,3950.4709,N,10503.9528,W,42.16,271.55,141217,,,D*42
$GPRMC,152945.600,A,3950.4710,N,10503.9558,W,41.92,271.76,141217,,,D*41
$GPRMC,152945.800,A,3950.4711,N,10503.9588,W,41.89,272.05,141217,,,D*4E
$GPRMC,152946.000,A,3950.4713,N,10503.9619,W,41.91,272.33,141217,,,D*40
$GPRMC,152946.200,A,3950.4714,N,10503.9649,W,41.92,272.38,141217,,,D*48
$GPRMC,152946.400,A,3950.4715,N,10503.9680,W,41.92,272.69,141217,,,D*4E
$GPRMC,152946.600,A,3950.4716,N,10503.9710,W,41.87,272.76,141217,,,D*4D
$GPRMC,152946.800,A,3950.4717,N,10503.9740,W,41.86,272.80,141217,,,D*4F
$GPRMC,152947.000,A,3950.4718,N,10503.9770,W,41.83,272.92,141217,,,D*4C
$GPRMC,152947.200,A,3950.4720,N,10503.9801,W,41.80,272.82,141217,,,D*4E
$GPRMC,152947.400,A,3950.4721,N,10503.9831,W,41.74,272.79,141217,,,D*45
$GPRMC,152947.600,A,3950.4722,N,10503.9861,W,41.53,272.82,141217,,,D*40
$GPRMC,152947.800,A,3950.4723,N,10503.9891,W,41.48,272.76,141217,,,D*41
$GPRMC,152948.000,A,3950.4724,N,10503.9921,W,41.42,272.65,141217,,,D*43
$GPRMC,152948.200,A,3950.4724,N,10503.9951,W,41.36,272.42,141217,,,D*40
$GPRMC,152948.400,A,3950.4725,N,10503.9981,W,41.33,272.12,141217,,,D*4A
$GPRMC,152948.600,A,3950.4725,N,10504.0011,W,41.26,271.77,141217,,,D*42
$GPRMC,152948.800,A,3950.4725,N,10504.0041,W,41.21,271.64,141217,,,D*4C
$GPRMC,152949.000,A,3950.4726,N,10504.0071,W,40.96,271.32,141217,,,D*4B
$GPRMC,152949.200,A,3950.4726,N,10504.0101,W,40.93,271.09,141217,,,D*42
$GPRMC,152949.400,A,3950.4726,N,10504.0131,W,40.74,270.83,141217,,,D*4D
$GPRMC,152949.600,A,3950.4726,N,10504.0160,W,40.71,270.71,141217,,,D*43
$GPRMC,152949.800,A,3950.4726,N,10504.0190,W,40.65,270.49,141217,,,D*4C
$GPRMC,152950.000,A,3950.4726,N,10504.0220,W,40.63,270.34,141217,,,D*48
$GPRMC,152950.200,A,3950.4726,N,10504.0249,W,40.56,270.44,141217,,,D*44
$GPRMC,152950.400,A,3950.4726,N,10504.0279,W,40.53,270.57,141217,,,D*46
$GPRMC,152950.600,A,3950.4726,N,10504.0308,W,40.47,270.70,141217,,,D*43
$GPRMC,152950.800,A,3950.4726,N,10504.0338,W,40.28,270.83,141217,,,D*4B
$GPRMC,152951.000,A,3950.4726,N,10504.0367,W,40.26,270.98,141217,,,D*4C
$GPRMC,152951.200,A,3950.4726,N,10504.0396,W,40.24,270.98,141217,,,D*42
$GPRMC,152951.400,A,3950.4727,N,10504.0425,W,40.08,271.12,141217,,,D*47
$GPRMC,152951.600,A,3950.4727,N,10504.0454,W,40.08,271.11,141217,,,D*40
$GPRMC,152951.800,A,3950.4727,N,10504.0483,W,40.03,271.08,141217,,,D*47
$GPRMC,152952.000,A,3950.4727,N,10504.0512,W,39.96,271.15,141217,,,D*4B
$GPRMC,152952.200,A,3950.4727,N,10504.0540,W,39.75,271.30,141217,,,D*44
$GPRMC,152952.400,A,3950.4728,N,10504.0569,W,39.70,271.65,141217,,,D*43
$GPRMC,152952.600,A,3950.4728,N,10504.0598,W,39.63,271.99,141217,,,D*4E
$GPRMC,152952.800,A,3950.4729,N,10504.0627,W,39.43,272.25,141217,,,D*40
$GPRMC,152953.000,A,3950.4730,N,10504.0655,W,39.38,272.34,141217,,,D*48
$GPRMC,152953.200,A,3950.4730,N,10504.0684,W,39.18,272.45,141217,,,D*42
$GPRMC,152953.400,A,3950.4731,N,10504.0712,W,39.01,272.69,141217,,,D*4D
$GPRMC,152953.600,A,3950.4732,N,10504.0740,W,38.82,272.78,141217,,,D*41
$GPRMC,152953.800,A,3950.4734,N,10504.0768,W,38.80,272.91,141217,,,D*46
$GPRMC,152954.000,A,3950.4734,N,10504.0796,W,38.78,272.90,141217,,,D*4E
$GPRMC,152954.200,A,3950.4735,N,10504.0824,W,38.81,273.00,141217,,,D*45
$GPRMC,152954.400,A,3950.4736,N,10504.0851,W,38.80,272.98,141217,,,D*43
$GPRMC,152954.600,A,3950.4738,N,10504.0879,W,38.73,272.99,141217,,,D*48
$GPRMC,152954.800,A,3950.4739,N,10504.0907,W,38.73,272.84,141217,,,D*43
$GPRMC,152955.000,A,3950.4740,N,10504.0934,W,38.69,272.82,141217,,,D*49
$GPRMC,152955.200,A,3950.4741,N,10504.0962,W,38.66,272.78,141217,,,D*43
$GPRMC,152955.400,A,3950.4742,N,10504.0990,W,38.65,272.78,141217,,,D*48
$GPRMC,152955.600,A,3950.4743,N,10504.1018,W,38.65,272.72,141217,,,D*49
$GPRMC,152955.800,A,3950.4744,N,10504.1045,W,38.67,272.49,141217,,,D*42
$GPRMC,152956.000,A,3950.4745,N,10504.1073,W,38.88,272.32,141217,,,D*40
$GPRMC,152956.200,A,3950.4746,N,10504.1101,W,38.86,272.42,141217,,,D*4C
$GPRMC,152956.400,A,3950.4747,N,10504.1128,W,38.84,272.73,141217,,,D*40
$GPRMC,152956.600,A,3950.4748,N,10504.1156,W,38.83,272.75,141217,,,D*45
$GPRMC,152956.800,A,3950.4749,N,10504.1183,W,38.88,272.80,141217,,,D*43
$GPRMC,152957.000,A,3950.4750,N,10504.1211,W,38.94,272.79,141217,,,D*41
$GPRMC,152957.200,A,3950.4752,N,10504.1239,W,38.97,272.72,141217,,,D*43
$GPRMC,152957.400,A,3950.4753,N,10504.1267,W,39.24,272.80,141217,,,D*4B
$GPRMC,152957.600,A,3950.4754,N,10504.1294,W,39.25,272.79,141217,,,D*45
$GPRMC,152957.800,A,3950.4756,N,10504.1322,W,39.27,272.75,141217,,,D*4B
$GPRMC,152958.000,A,3950.4757,N,10504.1350,W,39.20,272.75,141217,,,D*4F
$GPRMC,152958.200,A,3950.4758,N,10504.1378,W,39.15,272.89,141217,,,D*4D
$GPRMC,152958.400,A,3950.4759,N,10504.1406,W,39.21,273.18,141217,,,D*4A
$GPRMC,152958.600,A,3950.4761,N,10504.1435,W,39.38,273.35,141217,,,D*44
$GPRMC,152958.800,A,3950.4762,N,10504.1463,W,39.38,273.33,141217,,,D*4C
$GPRMC,152959.000,A,3950.4763,N,10504.1491,W,39.33,273.33,141217,,,D*42
$GPRMC,152959.200,A,3950.4765,N,10504.1519,W,39.34,273.49,141217,,,D*4D
$GPRMC,152959.400,A,3950.4766,N,10504.1548,W,39.40,273.74,141217,,,D*41
$GPRMC,152959.600,A,3950.4768,N,10504.1577,W,39.62,273.95,141217,,,D*4E
$GPRMC,152959.800,A,3950.4770,N,10504.1605,W,39.58,274.39,141217,,,D*47
$GPRMC,153000.000,A,3950.4772,N,10504.1633,W,39.60,274.90,141217,,,D*44
$GPRMC,153000.200,A,3950.4774,N,10504.1662,W,39.64,275.07,141217,,,D*4F
$GPRMC,153000.400,A,3950.4776,N,10504.1690,W,39.87,275.46,141217,,,D*4E
$GPRMC,153000.600,A,3950.4778,N,10504.1719,W,40.08,275.93,141217,,,D*43
$GPRMC,153000.800,A,3950.4781,N,10504.1748,W,40.05,276.29,141217,,,D*40
$GPRMC,153001.000,A,3950.4784,N,10504.1777,W,40.04,276.74,141217,,,D*49
$GPRMC,153001.200,A,3950.4787,N,10504.1806,W,40.06,276.99,141217,,,D*40
$GPRMC,153001.400,A,3950.4790,N,10504.1834,W,40.10,277.54,141217,,,D*46
$GPRMC,153001.600,A,3950.4794,N,10504.1863,W,40.10,277.92,141217,,,D*48
$GPRMC,153001.800,A,3950.4797,N,10504.1892,W,40.11,278.40,141217,,,D*4A
$GPRMC,153002.000,A,3950.4801,N,10504.1921,W,40.15,278.86,141217,,,D*46
$GPRMC,153002.200,A,3950.4805,N,10504.1950,W,40.18,279.13,141217,,,D*46
$GPRMC,153002.400,A,3950.4808,N,10504.1978,W,40.23,279.20,141217,,,D*4F
$GPRMC,153002.600,A,3950.4812,N,10504.2007,W,40.25,279.06,141217,,,D*46
$GPRMC,153002.800,A,3950.4815,N,10504.2036,W,40.25,278.93,141217,,,D*40
$GPRMC,153003.000,A,3950.4819,N,10504.2065,W,40.25,278.89,141217,,,D*48
$GPRMC,153003.200,A,3950.4822,N,10504.2093,W,40.24,278.78,141217,,,D*44
$GPRMC,153003.400,A,3950.4826,N,10504.2122,W,40.25,278.74,141217,,,D*40
$GPRMC,153003.600,A,3950.4829,N,10504.2151,W,40.28,278.77,141217,,,D*47
$GPRMC,153003.800,A,3950.4832,N,10504.2180,W,40.30,278.72,141217,,,D*43
$GPRMC,153004.000,A,3950.4835,N,10504.2209,W,40.30,278.52,141217,,,D*4B
$GPRMC,153004.200,A,3950.4839,N,10504.2238,W,40.29,278.52,141217,,,D*4F
$GPRMC,153004.400,A,3950.4842,N,10504.2267,W,40.29,278.49,141217,,,D*45
$GPRMC,153004.600,A,3950.4845,N,10504.2296,W,40.31,278.58,141217,,,D*47
$GPRMC,153004.800,A,3950.4849,N,10504.2325,W,40.35,278.76,141217,,,D*44
$GPRMC,153005.000,A,3950.4852,N,10504.2353,W,40.38,278.82,141217,,,D*40
$GPRMC,153005.200,A,3950.4856,N,10504.2382,W,40.36,278.94,141217,,,D*43
$GPRMC,153005.400,A,3950.4859,N,10504.2411,W,40.14,279.17,141217,,,D*4D
$GPRMC,153005.600,A,3950.4863,N,10504.2440,W,39.94,279.21,141217,,,D*41
$GPRMC,153005.800,A,3950.4866,N,10504.2468,W,39.88,279.58,141217,,,D*43
$GPRMC,153006.000,A,3950.4870,N,10504.2497,W,39.66,280.04,141217,,,D*40
$GPRMC,153006.200,A,3950.4874,N,10504.2525,W,39.59,280.14,141217,,,D*43
$GPRMC,153006.400,A,3950.4878,N,10504.2554,W,39.36,280.18,141217,,,D*4A
$GPRMC,153006.600,A,3950.4882,N,10504.2582,W,39.13,280.40,141217,,,D*4C
$GPRMC,153006.800,A,3950.4886,N,10504.2610,W,38.95,280.54,141217,,,D*44
$GPRMC,153007.000,A,3950.4890,N,10504.2637,W,38.72,280.69,141217,,,D*48
$GPRMC,153007.200,A,3950.4894,N,10504.2665,W,38.54,281.01,141217,,,D*42
$GPRMC,153007.400,A,3950.4899,N,10504.2692,W,38.32,281.54,141217,,,D*41
$GPRMC,153007.600,A,3950.4903,N,10504.2719,W,38.25,281.93,141217,,,D*4E
$GPRMC,153007.800,A,3950.4908,N,10504.2746,W,38.02,282.21,141217,,,D*4E
$GPRMC,153008.000,A,3950.4913,N,10504.2773,W,37.97,282.78,141217,,,D*4A
$GPRMC,153008.200,A,3950.4919,N,10504.2799,W,37.77,283.14,141217,,,D*43
$GPRMC,153008.400,A,3950.4924,N,10504.2826,W,37.73,283.63,141217,,,D*44
$GPRMC,153008.600,A,3950.4930,N,10504.2852,W,37.67,283.81,141217,,,D*49
$GPRMC,153008.800,A,3950.4935,N,10504.2878,W,37.49,283.79,141217,,,D*41
$GPRMC,153009.000,A,3950.4940,N,10504.2904,W,37.45,283.85,141217,,,D*4F
$GPRMC,153009.200,A,3950.4946,N,10504.2930,W,37.42,283.93,141217,,,D*4C
$GPRMC,153009.400,A,3950.4951,N,10504.2956,W,37.39,284.08,141217,,,D*45
$GPRMC,153009.600,A,3950.4957,N,10504.2982,W,37.41,284.25,141217,,,D*48
$GPRMC,153009.800,A,3950.4962,N,10504.3008,W,37.42,284.04,141217,,,D*4A
$GPRMC,153010.000,A,3950.4968,N,10504.3035,W,37.61,284.30,141217,,,D*48
$GPRMC,153010.200,A,3950.4974,N,10504.3061,W,37.89,284.65,141217,,,D*40
$GPRMC,153010.400,A,3950.4980,N,10504.3087,W,38.17,285.15,141217,,,D*4B
$GPRMC,153010.600,A,3950.4987,N,10504.3114,W,38.23,285.48,141217,,,D*4A
$GPRMC,153010.800,A,3950.4993,N,10504.3141,W,38.46,285.72,141217,,,D*4B
$GPRMC,153011.000,A,3950.4999,N,10504.3167,W,38.53,285.81,141217,,,D*44
$GPRMC,153011.200,A,3950.5006,N,10504.3194,W,38.60,286.23,141217,,,D*4F
$GPRMC,153011.400,A,3950.5012,N,10504.3221,W,38.89,286.45,141217,,,D*46
$GPRMC,153011.600,A,3950.5019,N,10504.3247,W,38.87,286.45,141217,,,D*41
$GPRMC,153011.800,A,3950.5025,N,10504.3275,W,39.09,286.50,141217,,,D*42
$GPRMC,153012.000,A,3950.5031,N,10504.3300,W,39.12,286.58,141217,,,D*4D
$GPRMC,153012.200,A,3950.5038,N,10504.3327,W,39.18,287.24,141217,,,D*43
$GPRMC,153012.400,A,3950.5045,N,10504.3355,W,39.26,286.92,141217,,,D*4B
$GPRMC,153012.600,A,3950.5051,N,10504.3383,W,39.32,286.74,141217,,,D*4A
$GPRMC,153012.800,A,3950.5058,N,10504.3410,W,39.40,287.08,141217,,,D*4F
$GPRMC,153013.000,A,3950.5064,N,10504.3438,W,39.46,286.74,141217,,,D*4F
$GPRMC,153013.200,A,3950.5071,N,10504.3466,W,39.53,286.59,141217,,,D*49
$GPRMC,153013.400,A,3950.5077,N,10504.3494,W,39.62,286.63,141217,,,D*4F
$GPRMC,153013.600,A,3950.5084,N,10504.3522,W,39.70,286.26,141217,,,D*4F
$GPRMC,153013.800,A,3950.5090,N,10504.3550,W,39.80,286.12,141217,,,D*49
$GPRMC,153014.000,A,3950.5097,N,10504.3578,W,39.90,285.69,141217,,,D*45
$GPRMC,153014.200,A,3950.5103,N,10504.3607,W,40.01,285.45,141217,,,D*48
$GPRMC,153014.400,A,3950.5109,N,10504.3636,W,41.18,284.43,141217,,,D*48
$GPRMC,153014.600,A,3950.5114,N,10504.3665,W,41.38,283.77,141217,,,D*42
$GPRMC,153014.800,A,3950.5120,N,10504.3695,W,41.41,283.14,141217,,,D*4F
$GPRMC,153015.000,A,3950.5125,N,10504.3724,W,41.60,282.39,141217,,,D*45
$GPRMC,153015.200,A,3950.5129,N,10504.3754,W,41.86,281.26,141217,,,D*49
$GPRMC,153015.400,A,3950.5134,N,10504.3784,W,42.02,280.75,141217,,,D*46
$GPRMC,153015.600,A,3950.5138,N,10504.3815,W,42.25,280.11,141217,,,D*48
$GPRMC,153015.800,A,3950.5142,N,10504.3845,W,42.26,279.75,141217,,,D*49
$GPRMC,153016.000,A,3950.5145,N,10504.3875,W,42.30,279.16,141217,,,D*44
$GPRMC,153016.200,A,3950.5148,N,10504.3906,W,42.29,278.36,141217,,,D*45
$GPRMC,153016.400,A,3950.5151,N,10504.3937,W,42.26,276.94,141217,,,D*40
$GPRMC,153016.600,A,3950.5153,N,10504.3967,W,42.27,275.70,141217,,,D*4D
$GPRMC,153016.800,A,3950.5154,N,10504.3999,W,42.44,274.52,141217,,,D*41
$GPRMC,153017.000,A,3950.5155,N,10504.4030,W,42.61,273.23,141217,,,D*42
$GPRMC,153017.200,A,3950.5156,N,10504.4061,W,42.64,272.45,141217,,,D*43
$GPRMC,153017.400,A,3950.5156,N,10504.4092,W,42.84,271.27,141217,,,D*40
$GPRMC,153017.600,A,3950.5156,N,10504.4124,W,42.87,270.57,141217,,,D*4B
$GPRMC,153017.800,A,3950.5156,N,10504.4155,W,42.92,270.17,141217,,,D*43
$GPRMC,153018.000,A,3950.5156,N,10504.4187,W,43.14,269.73,141217,,,D*4E
$GPRMC,153018.200,A,3950.5156,N,10504.4218,W,43.22,269.41,141217,,,D*4D
$GPRMC,153018.400,A,3950.5155,N,10504.4250,W,43.39,269.01,141217,,,D*4A
$GPRMC,153018.600,A,3950.5154,N,10504.4282,W,43.44,268.69,141217,,,D*43
$GPRMC,153018.800,A,3950.5153,N,10504.4314,W,43.61,268.31,141217,,,D*4E
$GPRMC,153019.000,A,3950.5152,N,10504.4346,W,43.79,268.00,141217,,,D*4A
$GPRMC,153019.200,A,3950.5151,N,10504.4378,W,43.81,267.82,141217,,,D*44
$GPRMC,153019.400,A,3950.5149,N,10504.4410,W,44.00,267.62,141217,,,D*42
$GPRMC,153019.600,A,3950.5148,N,10504.4442,W,44.04,267.48,141217,,,D*4A
$GPRMC,153019.800,A,3950.5146,N,10504.4474,W,44.22,267.29,141217,,,D*4C
$GPRMC,153020.000,A,3950.5145,N,10504.4506,W,44.25,267.31,141217,,,D*47
$GPRMC,153020.200,A,3950.5143,N,10504.4538,W,44.41,267.34,141217,,,D*49
$GPRMC,153020.400,A,3950.5142,N,10504.4571,W,44.47,267.56,141217,,,D*41
$GPRMC,153020.600,A,3950.5141,N,10504.4603,W,44.50,268.58,141217,,,D*41
$GPRMC,153020.800,A,3950.5141,N,10504.4636,W,44.57,269.02,141217,,,D*40
$GPRMC,153021.000,A,3950.5140,N,10504.4668,W,44.50,269.30,141217,,,D*45
$GPRMC,153021.200,A,3950.5139,N,10504.4701,W,44.46,269.57,141217,,,D*41
$GPRMC,153021.400,A,3950.5139,N,10504.4733,W,44.48,269.68,141217,,,D*44
$GPRMC,153021.600,A,3950.5139,N,10504.4766,W,44.53,269.88,141217,,,D*42
$GPRMC,153021.800,A,3950.5139,N,10504.4798,W,44.54,270.18,141217,,,D*4B
$GPRMC,153022.000,A,3950.5139,N,10504.4831,W,44.53,270.48,141217,,,D*4E
$GPRMC,153022.200,A,3950.5139,N,10504.4863,W,44.55,270.54,141217,,,D*40
$GPRMC,153022.400,A,3950.5140,N,10504.4896,W,44.58,270.42,141217,,,D*48
$GPRMC,153022.600,A,3950.5140,N,10504.4928,W,44.79,270.22,141217,,,D*4B
$GPRMC,153022.800,A,3950.5139,N,10504.4961,W,44.77,270.12,141217,,,D*4B
$GPRMC,153023.000,A,3950.5139,N,10504.4993,W,44.80,270.19,141217,,,D*4C
$GPRMC,153023.200,A,3950.5139,N,10504.5025,W,44.85,270.22,141217,,,D*46
$GPRMC,153023.400,A,3950.5139,N,10504.5058,W,44.89,270.32,141217,,,D*47
$GPRMC,153023.600,A,3950.5139,N,10504.5091,W,44.91,270.38,141217,,,D*43
$GPRMC,153023.800,A,3950.5139,N,10504.5124,W,44.95,270.50,141217,,,D*48
$GPRMC,153024.000,A,3950.5139,N,10504.5157,W,44.98,270.67,141217,,,D*4A
$GPRMC,153024.200,A,3950.5139,N,10504.5189,W,44.98,270.67,141217,,,D*4B
$GPRMC,153024.400,A,3950.5138,N,10504.5221,W,44.95,270.62,141217,,,D*45
$GPRMC,153024.600,A,3950.5139,N,10504.5254,W,44.92,270.70,141217,,,D*40
$GPRMC,153024.800,A,3950.5139,N,10504.5286,W,44.74,270.76,141217,,,D*4F
$GPRMC,153025.000,A,3950.5139,N,10504.5319,W,44.75,270.77,141217,,,D*41
$GPRMC,153025.200,A,3950.5139,N,10504.5352,W,44.69,270.74,141217,,,D*42
$GPRMC,153025.400,A,3950.5139,N,10504.5384,W,44.47,270.62,141217,,,D*44
$GPRMC,153025.600,A,3950.5139,N,10504.5416,W,44.43,270.51,141217,,,D*4E
$GPRMC,153025.800,A,3950.5139,N,10504.5449,W,44.25,270.36,141217,,,D*4B
$GPRMC,153026.000,A,3950.5139,N,10504.5481,W,44.20,270.29,141217,,,D*4F
$GPRMC,153026.200,A,3950.5140,N,10504.5513,W,44.14,270.25,141217,,,D*42
$GPRMC,153026.400,A,3950.5140,N,10504.5545,W,43.89,270.20,141217,,,D*41
$GPRMC,153026.600,A,3950.5140,N,10504.5577,W,43.64,270.17,141217,,,D*45
$GPRMC,153026.800,A,3950.5140,N,10504.5609,W,43.58,270.21,141217,,,D*4B
$GPRMC,153027.000,A,3950.5140,N,10504.5641,W,43.35,270.23,141217,,,D*47
$GPRMC,153027.200,A,3950.5140,N,10504.5672,W,43.11,270.19,141217,,,D*4A
$GPRMC,153027.400,A,3950.5140,N,10504.5703,W,43.10,270.10,141217,,,D*43
$GPRMC,153027.600,A,3950.5140,N,10504.5734,W,42.58,269.92,141217,,,D*4A
$GPRMC,153027.800,A,3950.5139,N,10504.5765,W,42.31,269.91,141217,,,D*42