$GPRMC,231954.000,A,3950.5765,N,10502.1501,W,0.00,316.99,191217,,,A*70
$GYRO,171219,231954.000,-0.312,+0.000,+0.125
$EULER,171219,231954.000,+198.938,-1.062,-2.688
$GPRMC,231954.100,A,3950.5763,N,10502.1513,W,0.27,316.99,191217,,,A*71
$GYRO,171219,231954.100,+0.625,+0.375,-0.125
$EULER,171219,231954.100,+198.438,-1.062,-2.688
$GPRMC,231954.200,A,3950.5756,N,10502.1521,W,0.28,316.99,191217,,,A*7A
$GYRO,171219,231954.200,-0.250,-0.562,+0.062
$EULER,171219,231954.200,+197.562,-1.000,-2.688
$GPRMC,231954.300,A,3950.5748,N,10502.1526,W,0.31,316.99,191217,,,A*7B
$GYRO,171219,231954.300,+0.125,+0.188,+0.062
$EULER,171219,231954.300,+196.812,-0.812,-2.750
$GPRMC,231954.400,A,3950.5736,N,10502.1533,W,0.33,316.99,191217,,,A*73
$GYRO,171219,231954.400,-0.438,-1.000,+0.000
$EULER,171219,231954.400,+196.438,-0.688,-2.750
$GPRMC,231954.500,A,3950.5727,N,10502.1538,W,0.35,316.99,191217,,,A*7F
$GYRO,171219,231954.500,-0.312,-2.562,+0.500
$EULER,171219,231954.500,+195.938,-0.562,-2.750
$GPRMC,231954.600,A,3950.5720,N,10502.1540,W,3.65,114.62,191217,,,A*76
$GYRO,171219,231954.600,-0.250,-0.750,+0.312
$EULER,171219,231954.600,+195.375,-0.438,-2.688
$GPRMC,231954.700,A,3950.5714,N,10502.1541,W,3.72,116.26,191217,,,A*75
$GYRO,171219,231954.700,-0.125,-0.875,+0.188
$EULER,171219,231954.700,+194.875,-0.375,-2.688
$GPRMC,231954.800,A,3950.5709,N,10502.1541,W,3.79,118.06,191217,,,A*71
$GYRO,171219,231954.800,+0.188,-1.375,+0.625
$EULER,171219,231954.800,+194.562,+0.062,-2.750
$GPRMC,231954.900,A,3950.5704,N,10502.1542,W,3.82,119.96,191217,,,A*72
$GYRO,171219,231954.900,-0.250,-1.500,+1.375
$EULER,171219,231954.900,+194.250,+3.812,-3.375
$GPRMC,231955.000,A,3950.5702,N,10502.1542,W,3.82,121.61,191217,,,A*7F
$GYRO,171219,231955.000,+0.875,-0.062,+0.438
$EULER,171219,231955.000,+194.188,+6.312,-3.812
$GPRMC,231955.100,A,3950.5699,N,10502.1543,W,3.80,122.65,191217,,,A*79
$GYRO,171219,231955.100,+0.250,-1.562,+0.500
$EULER,171219,231955.100,+194.312,+7.250,-4.000
$GPRMC,231955.200,A,3950.5697,N,10502.1544,W,3.79,124.71,191217,,,A*76
$GYRO,171219,231955.200,+1.500,-0.250,+0.438
$EULER,171219,231955.200,+194.750,+7.875,-4.188
$GPRMC,231955.300,A,3950.5695,N,10502.1544,W,3.52,127.82,191217,,,A*73
$GYRO,171219,231955.300,+1.938,-1.062,+0.438
$EULER,171219,231955.300,+195.188,+8.500,-4.375
$GPRMC,231955.400,A,3950.5694,N,10502.1545,W,3.35,132.30,191217,,,A*78
$GYRO,171219,231955.400,+1.188,-2.125,+0.625
$EULER,171219,231955.400,+195.250,+9.500,-4.688
$GPRMC,231955.500,A,3950.5692,N,10502.1546,W,3.15,137.04,191217,,,A*7C
$GYRO,171219,231955.500,-0.938,-0.250,+0.188
$EULER,171219,231955.500,+195.312,+9.812,-4.625
$GPRMC,231955.600,A,3950.5691,N,10502.1546,W,3.10,142.68,191217,,,A*71
$GYRO,171219,231955.600,-1.938,-0.500,+0.562
$EULER,171219,231955.600,+195.250,+10.125,-4.562
$GPRMC,231955.700,A,3950.5690,N,10502.1548,W,2.86,150.20,191217,,,A*7E
$GYRO,171219,231955.700,-1.438,-0.438,+0.625
$EULER,171219,231955.700,+195.188,+10.625,-4.500
$GPRMC,231955.800,A,3950.5688,N,10502.1549,W,2.81,159.49,191217,,,A*78
$GYRO,171219,231955.800,-0.062,+1.188,+0.562
$EULER,171219,231955.800,+195.188,+10.500,-4.438
$GPRMC,231955.900,A,3950.5687,N,10502.1550,W,2.77,169.85,191217,,,A*74
$GYRO,171219,231955.900,+0.000,+0.875,+0.562
$EULER,171219,231955.900,+195.188,+10.562,-4.375
$GPRMC,231956.000,A,3950.5686,N,10502.1551,W,2.77,179.93,191217,,,A*78
$GYRO,171219,231956.000,+0.062,-0.938,+0.750
$EULER,171219,231956.000,+195.125,+10.500,-4.375
$GPRMC,231956.100,A,3950.5684,N,10502.1552,W,2.78,182.86,191217,,,A*77
$GYRO,171219,231956.100,+2.625,+2.375,+0.438
$EULER,171219,231956.100,+195.062,+10.375,-4.562
$GPRMC,231956.200,A,3950.5683,N,10502.1553,W,2.82,189.66,191217,,,A*72
$GYRO,171219,231956.200,-2.188,-1.500,+0.375
$EULER,171219,231956.200,+195.062,+10.188,-4.500
$GPRMC,231956.300,A,3950.5681,N,10502.1553,W,3.01,196.15,191217,,,A*71
$GYRO,171219,231956.300,-0.812,+0.375,+0.750
$EULER,171219,231956.300,+194.688,+10.312,-4.438
$GPRMC,231956.400,A,3950.5680,N,10502.1554,W,3.22,202.58,191217,,,A*76
$GYRO,171219,231956.400,-0.188,+2.250,+0.625
$EULER,171219,231956.400,+194.062,+10.250,-4.250
$GPRMC,231956.500,A,3950.5678,N,10502.1555,W,3.57,210.60,191217,,,A*7B
$GYRO,171219,231956.500,-1.438,-2.438,+0.000
$EULER,171219,231956.500,+193.812,+10.250,-4.062
$GPRMC,231956.600,A,3950.5677,N,10502.1557,W,3.94,215.61,191217,,,A*7E
$GYRO,171219,231956.600,+1.875,-0.062,+0.875
$EULER,171219,231956.600,+193.375,+10.250,-4.125
$GPRMC,231956.700,A,3950.5676,N,10502.1559,W,4.38,221.97,191217,,,A*7F
$GYRO,171219,231956.700,-2.375,+0.875,+0.500
$EULER,171219,231956.700,+192.938,+10.375,-4.000
$GPRMC,231956.800,A,3950.5674,N,10502.1561,W,4.74,225.32,191217,,,A*7A
$GYRO,171219,231956.800,+2.188,-1.812,+0.688
$EULER,171219,231956.800,+192.375,+10.625,-3.875
$GPRMC,231956.900,A,3950.5674,N,10502.1563,W,5.21,229.61,191217,,,A*72
$GYRO,171219,231956.900,+2.312,-5.750,+0.125
$EULER,171219,231956.900,+191.812,+11.000,-4.000
$GPRMC,231957.000,A,3950.5672,N,10502.1566,W,5.72,232.73,191217,,,A*76
$GYRO,171219,231957.000,+1.312,+4.062,+1.000
$EULER,171219,231957.000,+191.438,+11.125,-4.125
$GPRMC,231957.100,A,3950.5671,N,10502.1567,W,5.77,233.71,191217,,,A*73
$GYRO,171219,231957.100,+0.875,+2.750,+1.188
$EULER,171219,231957.100,+191.438,+10.875,-4.250
$GPRMC,231957.200,A,3950.5671,N,10502.1569,W,6.08,235.91,191217,,,A*7D
$GYRO,171219,231957.200,-0.500,+2.812,+0.125
$EULER,171219,231957.200,+191.375,+10.688,-4.188
$GPRMC,231957.300,A,3950.5670,N,10502.1571,W,6.35,237.27,191217,,,A*75
$GYRO,171219,231957.300,+0.938,+4.438,+0.625
$EULER,171219,231957.300,+191.312,+10.312,-4.125
$GPRMC,231957.400,A,3950.5669,N,10502.1574,W,6.68,239.49,191217,,,A*71
$GYRO,171219,231957.400,-1.375,+0.625,+0.688
$EULER,171219,231957.400,+191.250,+10.000,-4.312
$GPRMC,231957.500,A,3950.5669,N,10502.1576,W,6.89,240.78,191217,,,A*71
$GYRO,171219,231957.500,-2.000,+1.000,+1.062
$EULER,171219,231957.500,+191.188,+9.812,-4.438
$GPRMC,231957.600,A,3950.5668,N,10502.1578,W,7.12,241.64,191217,,,A*72
$GYRO,171219,231957.600,-1.125,-2.000,+0.562
$EULER,171219,231957.600,+191.562,+9.812,-4.375
$GPRMC,231957.700,A,3950.5667,N,10502.1580,W,7.37,242.66,191217,,,A*7D
$GYRO,171219,231957.700,-1.375,-0.250,+0.500
$EULER,171219,231957.700,+191.562,+10.000,-4.188
$GPRMC,231957.800,A,3950.5667,N,10502.1583,W,7.55,243.38,191217,,,A*7F
$GYRO,171219,231957.800,-4.000,-13.812,+2.875
$EULER,171219,231957.800,+191.438,+10.375,-4.188
$GPRMC,231957.900,A,3950.5666,N,10502.1585,W,7.74,244.03,191217,,,A*75
$GYRO,171219,231957.900,-0.625,+4.062,+1.250
$EULER,171219,231957.900,+191.375,+10.188,-4.250
$GPRMC,231958.000,A,3950.5665,N,10502.1588,W,7.95,244.96,191217,,,A*7E
$GYRO,171219,231958.000,-2.438,-2.062,-0.062
$EULER,171219,231958.000,+191.312,+10.188,-4.250
$GPRMC,231958.100,A,3950.5665,N,10502.1590,W,7.96,245.35,191217,,,A*7D
$GYRO,171219,231958.100,-1.500,+0.688,+0.062
$EULER,171219,231958.100,+191.000,+10.062,-4.062
$GPRMC,231958.200,A,3950.5664,N,10502.1592,W,8.01,245.83,191217,,,A*71
$GYRO,171219,231958.200,+0.500,+1.375,-0.062
$EULER,171219,231958.200,+190.625,+10.000,-3.938
$GPRMC,231958.300,A,3950.5664,N,10502.1595,W,8.09,246.34,191217,,,A*70
$GYRO,171219,231958.300,-0.438,+1.188,+0.312
$EULER,171219,231958.300,+190.375,+10.125,-4.000
$GPRMC,231958.400,A,3950.5663,N,10502.1598,W,8.29,246.86,191217,,,A*76
$GYRO,171219,231958.400,+2.688,+0.125,-0.438
$EULER,171219,231958.400,+190.250,+10.125,-3.938
$GPRMC,231958.500,A,3950.5662,N,10502.1601,W,8.35,247.35,191217,,,A*71
$GYRO,171219,231958.500,-0.188,+0.625,+0.250
$EULER,171219,231958.500,+190.125,+10.188,-3.812
$GPRMC,231958.600,A,3950.5661,N,10502.1604,W,8.61,247.84,191217,,,A*7F
$GYRO,171219,231958.600,+0.125,+0.688,+0.062
$EULER,171219,231958.600,+190.125,+10.250,-3.750
$GPRMC,231958.700,A,3950.5660,N,10502.1607,W,8.80,248.39,191217,,,A*7A
$GYRO,171219,231958.700,-3.500,-0.438,+0.375
$EULER,171219,231958.700,+190.125,+10.188,-3.562
$GPRMC,231958.800,A,3950.5659,N,10502.1611,W,8.85,248.76,191217,,,A*76
$GYRO,171219,231958.800,-0.062,-1.312,+0.250
$EULER,171219,231958.800,+190.062,+10.312,-3.562
$GPRMC,231958.900,A,3950.5658,N,10502.1614,W,9.12,249.19,191217,,,A*74
$GYRO,171219,231958.900,-0.438,+2.875,+0.125
$EULER,171219,231958.900,+190.062,+10.188,-3.375
$GPRMC,231959.000,A,3950.5657,N,10502.1618,W,9.29,249.59,191217,,,A*73
$GYRO,171219,231959.000,-1.062,-3.875,+0.312
$EULER,171219,231959.000,+190.062,+10.250,-3.250
$GPRMC,231959.100,A,3950.5656,N,10502.1621,W,9.32,249.82,191217,,,A*75
$GYRO,171219,231959.100,-0.875,+0.188,-0.062
$EULER,171219,231959.100,+190.125,+10.438,-2.875
$GPRMC,231959.200,A,3950.5655,N,10502.1625,W,9.39,250.02,191217,,,A*7A
$GYRO,171219,231959.200,+0.375,-1.250,+0.562
$EULER,171219,231959.200,+190.125,+10.438,-2.750
$GPRMC,231959.300,A,3950.5653,N,10502.1628,W,9.68,249.97,191217,,,A*70
$GYRO,171219,231959.300,-0.500,+0.250,+1.375
$EULER,171219,231959.300,+190.000,+10.500,-2.688
$GPRMC,231959.400,A,3950.5652,N,10502.1632,W,9.85,250.01,191217,,,A*79
$GYRO,171219,231959.400,+1.625,-2.812,+1.688
$EULER,171219,231959.400,+189.812,+10.375,-2.688
$GPRMC,231959.500,A,3950.5651,N,10502.1635,W,9.89,250.34,191217,,,A*76
$GYRO,171219,231959.500,-2.938,+1.750,+1.562
$EULER,171219,231959.500,+189.688,+10.500,-2.688
$GPRMC,231959.600,A,3950.5650,N,10502.1639,W,9.97,250.76,191217,,,A*71
$GYRO,171219,231959.600,-2.688,-2.750,+2.125
$EULER,171219,231959.600,+189.500,+10.688,-2.688
$GPRMC,231959.700,A,3950.5649,N,10502.1643,W,10.04,251.21,191217,,,A*44
$GYRO,171219,231959.700,+3.375,+0.000,+0.750
$EULER,171219,231959.700,+189.438,+10.625,-2.562
$GPRMC,231959.800,A,3950.5648,N,10502.1647,W,10.11,251.75,191217,,,A*4B
$GYRO,171219,231959.800,+5.750,+6.688,-0.250
$EULER,171219,231959.800,+189.375,+10.188,-2.688
$GPRMC,231959.900,A,3950.5647,N,10502.1651,W,10.19,252.26,191217,,,A*4F
$GYRO,171219,231959.900,+1.125,+0.375,+0.062
$EULER,171219,231959.900,+189.375,+9.875,-2.750
$GPRMC,232000.000,A,3950.5647,N,10502.1655,W,10.26,252.83,191217,,,A*47
$GYRO,171219,232000.000,+1.312,+2.375,+0.000
$EULER,171219,232000.000,+189.375,+9.750,-2.688
$GPRMC,232000.100,A,3950.5646,N,10502.1659,W,10.32,253.26,191217,,,A*40
$GYRO,171219,232000.100,-4.625,-0.812,-0.500
$EULER,171219,232000.100,+189.375,+9.812,-2.438
$GPRMC,232000.200,A,3950.5645,N,10502.1663,W,10.39,253.45,191217,,,A*47
$GYRO,171219,232000.200,+0.875,-0.750,+0.125
$EULER,171219,232000.200,+189.438,+9.875,-2.250
$GPRMC,232000.300,A,3950.5644,N,10502.1667,W,10.57,253.77,191217,,,A*4A
$GYRO,171219,232000.300,-1.688,-0.500,-0.688
$EULER,171219,232000.300,+189.438,+9.938,-2.125
$GPRMC,232000.400,A,3950.5644,N,10502.1671,W,10.63,254.24,191217,,,A*4C
$GYRO,171219,232000.400,-0.188,-1.125,+0.250
$EULER,171219,232000.400,+189.438,+9.938,-2.125
$GPRMC,232000.500,A,3950.5643,N,10502.1676,W,10.84,254.64,191217,,,A*40
$GYRO,171219,232000.500,-2.125,+1.750,-0.062
$EULER,171219,232000.500,+189.438,+9.750,-2.062
$GPRMC,232000.600,A,3950.5643,N,10502.1681,W,11.01,254.99,191217,,,A*45
$GYRO,171219,232000.600,+0.188,+3.312,+0.000
$EULER,171219,232000.600,+188.938,+9.562,-2.000
$GPRMC,232000.700,A,3950.5642,N,10502.1685,W,11.09,255.30,191217,,,A*4B
$GYRO,171219,232000.700,+1.250,-2.688,+0.000
$EULER,171219,232000.700,+188.750,+9.625,-2.000
$GPRMC,232000.800,A,3950.5641,N,10502.1690,W,11.29,255.51,191217,,,A*46
$GYRO,171219,232000.800,-2.250,-0.438,-0.125
$EULER,171219,232000.800,+188.562,+9.750,-2.062
$GPRMC,232000.900,A,3950.5641,N,10502.1695,W,11.36,255.79,191217,,,A*46
$GYRO,171219,232000.900,+1.062,-0.250,-0.188
$EULER,171219,232000.900,+188.562,+9.812,-2.062
$GPRMC,232001.000,A,3950.5640,N,10502.1700,W,11.54,256.06,191217,,,A*4D
$GYRO,171219,232001.000,+2.750,+7.812,-0.812
$EULER,171219,232001.000,+188.562,+9.750,-2.125
$GPRMC,232001.100,A,3950.5639,N,10502.1705,W,11.56,256.14,191217,,,A*46
$GYRO,171219,232001.100,-1.812,+4.750,-0.688
$EULER,171219,232001.100,+188.562,+9.500,-2.188
$GPRMC,232001.200,A,3950.5639,N,10502.1709,W,11.61,256.26,191217,,,A*4C
$GYRO,171219,232001.200,-0.625,+2.125,-2.000
$EULER,171219,232001.200,+189.000,+9.250,-2.062
$GPRMC,232001.300,A,3950.5638,N,10502.1714,W,11.77,256.38,191217,,,A*48
$GYRO,171219,232001.300,+0.625,-3.625,-3.438
$EULER,171219,232001.300,+189.438,+9.312,-2.000
$GPRMC,232001.400,A,3950.5638,N,10502.1718,W,11.82,256.46,191217,,,A*40
$GYRO,171219,232001.400,-7.250,-2.500,-2.125
$EULER,171219,232001.400,+189.812,+9.312,-2.000
$GPRMC,232001.500,A,3950.5638,N,10502.1722,W,12.02,256.61,191217,,,A*46
$GYRO,171219,232001.500,+1.875,+1.375,-2.750
$EULER,171219,232001.500,+190.375,+9.312,-1.938
$GPRMC,232001.600,A,3950.5637,N,10502.1726,W,12.09,256.62,191217,,,A*46
$GYRO,171219,232001.600,-0.812,-1.625,-2.312
$EULER,171219,232001.600,+190.312,+9.375,-1.938
$GPRMC,232001.700,A,3950.5637,N,10502.1731,W,12.36,256.80,191217,,,A*41
$GYRO,171219,232001.700,-3.562,-2.375,-3.812
$EULER,171219,232001.700,+190.438,+9.688,-1.750
$GPRMC,232001.800,A,3950.5636,N,10502.1735,W,12.53,256.98,191217,,,A*41
$GYRO,171219,232001.800,-4.000,+0.188,-2.500
$EULER,171219,232001.800,+190.438,+9.812,-1.562
$GPRMC,232001.900,A,3950.5636,N,10502.1740,W,12.72,257.07,191217,,,A*46
$GYRO,171219,232001.900,+0.688,+1.312,-2.938
$EULER,171219,232001.900,+190.500,+9.750,-1.438
$GPRMC,232002.000,A,3950.5636,N,10502.1745,W,12.92,257.14,191217,,,A*45
$GYRO,171219,232002.000,-2.188,-0.250,-3.250
$EULER,171219,232002.000,+190.750,+9.562,-1.438
$GPRMC,232002.100,A,3950.5636,N,10502.1749,W,12.96,257.26,191217,,,A*4D
$GYRO,171219,232002.100,+0.125,-0.500,-3.188
$EULER,171219,232002.100,+190.875,+9.500,-1.375
$GPRMC,232002.200,A,3950.5635,N,10502.1753,W,13.03,257.47,191217,,,A*4C
$GYRO,171219,232002.200,-2.562,+0.125,-2.250
$EULER,171219,232002.200,+191.062,+9.500,-1.438
$GPRMC,232002.300,A,3950.5634,N,10502.1758,W,13.23,257.61,191217,,,A*41
$GYRO,171219,232002.300,-4.125,+4.562,-3.688
$EULER,171219,232002.300,+191.375,+9.562,-1.312
$GPRMC,232002.400,A,3950.5634,N,10502.1762,W,13.27,257.95,191217,,,A*40
$GYRO,171219,232002.400,-3.625,+3.562,-1.250
$EULER,171219,232002.400,+191.438,+9.188,-1.375
$GPRMC,232002.500,A,3950.5633,N,10502.1767,W,13.33,258.19,191217,,,A*4D
$GYRO,171219,232002.500,-5.062,+5.000,-1.188
$EULER,171219,232002.500,+191.562,+8.938,-1.312
$GPRMC,232002.600,A,3950.5633,N,10502.1771,W,13.39,258.37,191217,,,A*4F
$GYRO,171219,232002.600,-2.875,-5.625,-2.312
$EULER,171219,232002.600,+191.750,+8.875,-1.250
$GPRMC,232002.700,A,3950.5633,N,10502.1776,W,13.56,258.88,191217,,,A*44
$GYRO,171219,232002.700,+3.188,-4.688,-1.688
$EULER,171219,232002.700,+191.750,+9.250,-1.500
$GPRMC,232002.800,A,3950.5633,N,10502.1781,W,13.61,259.34,191217,,,A*41
$GYRO,171219,232002.800,+1.250,-4.812,-0.875
$EULER,171219,232002.800,+191.688,+9.438,-1.500
$GPRMC,232002.900,A,3950.5633,N,10502.1787,W,13.77,259.79,191217,,,A*48
$GYRO,171219,232002.900,-1.188,+3.750,-0.562
$EULER,171219,232002.900,+191.938,+9.500,-1.438
$GPRMC,232003.000,A,3950.5632,N,10502.1792,W,13.79,260.11,191217,,,A*4F
$GYRO,171219,232003.000,-0.250,+2.500,-0.438
$EULER,171219,232003.000,+191.938,+9.375,-1.625
$GPRMC,232003.100,A,3950.5632,N,10502.1797,W,13.82,260.27,191217,,,A*4A
$GYRO,171219,232003.100,+1.000,-0.562,-1.625
$EULER,171219,232003.100,+191.938,+9.250,-1.625
$GPRMC,232003.200,A,3950.5631,N,10502.1802,W,13.87,260.51,191217,,,A*4D
$GYRO,171219,232003.200,-2.688,+2.312,-0.188
$EULER,171219,232003.200,+192.125,+9.000,-1.562
$GPRMC,232003.300,A,3950.5631,N,10502.1807,W,13.95,260.84,191217,,,A*42
$GYRO,171219,232003.300,+0.812,+0.875,-0.438
$EULER,171219,232003.300,+192.188,+8.875,-1.625
$GPRMC,232003.400,A,3950.5631,N,10502.1813,W,14.14,261.15,191217,,,A*47
$GYRO,171219,232003.400,+0.500,+3.438,-0.812
$EULER,171219,232003.400,+192.188,+8.625,-1.688
$GPRMC,232003.500,A,3950.5631,N,10502.1818,W,14.20,261.48,191217,,,A*42
$GYRO,171219,232003.500,-0.875,+1.750,-0.375
$EULER,171219,232003.500,+192.500,+8.375,-1.812
$GPRMC,232003.600,A,3950.5631,N,10502.1823,W,14.27,261.82,191217,,,A*48
$GYRO,171219,232003.600,+1.062,+4.250,-0.125
$EULER,171219,232003.600,+192.375,+8.125,-1.812
$GPRMC,232003.700,A,3950.5631,N,10502.1828,W,14.34,262.19,191217,,,A*41
$GYRO,171219,232003.700,+1.438,+0.125,+0.375
$EULER,171219,232003.700,+192.562,+8.000,-1.875
$GPRMC,232003.800,A,3950.5631,N,10502.1834,W,14.54,262.38,191217,,,A*46
$GYRO,171219,232003.800,+2.125,-3.688,+0.188
$EULER,171219,232003.800,+192.938,+7.875,-1.875
$GPRMC,232003.900,A,3950.5630,N,10502.1838,W,14.59,262.51,191217,,,A*48
$GYRO,171219,232003.900,-3.750,-2.312,-0.125
$EULER,171219,232003.900,+193.000,+8.125,-1.688
$GPRMC,232004.000,A,3950.5630,N,10502.1843,W,14.82,262.97,191217,,,A*46
$GYRO,171219,232004.000,-0.812,+1.188,+0.000
$EULER,171219,232004.000,+192.938,+8.250,-1.562
$GPRMC,232004.100,A,3950.5629,N,10502.1847,W,14.85,263.00,191217,,,A*43
$GYRO,171219,232004.100,-0.312,+1.562,-0.375
$EULER,171219,232004.100,+193.000,+8.125,-1.250
$GPRMC,232004.200,A,3950.5629,N,10502.1854,W,15.03,263.09,191217,,,A*44
$GYRO,171219,232004.200,-6.375,+0.750,-0.062
$EULER,171219,232004.200,+193.062,+8.062,-0.875
$GPRMC,232004.300,A,3950.5629,N,10502.1859,W,15.07,263.19,191217,,,A*4D
$GYRO,171219,232004.300,+2.188,-0.562,+0.500
$EULER,171219,232004.300,+193.062,+8.000,-0.750
$GPRMC,232004.400,A,3950.5629,N,10502.1865,W,15.12,263.24,191217,,,A*4F
$GYRO,171219,232004.400,+3.188,+0.188,+0.250
$EULER,171219,232004.400,+193.000,+8.000,-0.938
$GPRMC,232004.500,A,3950.5629,N,10502.1870,W,15.20,263.30,191217,,,A*4E
$GYRO,171219,232004.500,-0.438,-1.438,-0.125
$EULER,171219,232004.500,+193.188,+8.062,-0.938
$GPRMC,232004.600,A,3950.5629,N,10502.1876,W,15.36,263.44,191217,,,A*4F
$GYRO,171219,232004.600,-1.188,-0.562,+0.500
$EULER,171219,232004.600,+193.188,+8.125,-0.875
$GPRMC,232004.700,A,3950.5628,N,10502.1882,W,15.42,263.41,191217,,,A*42
$GYRO,171219,232004.700,+1.375,+0.562,+0.438
$EULER,171219,232004.700,+193.188,+8.250,-0.938
$GPRMC,232004.800,A,3950.5628,N,10502.1887,W,15.50,263.55,191217,,,A*4E
$GYRO,171219,232004.800,+0.312,+0.188,-0.312
$EULER,171219,232004.800,+193.188,+8.125,-0.875
$GPRMC,232004.900,A,3950.5628,N,10502.1893,W,15.57,263.55,191217,,,A*4D
$GYRO,171219,232004.900,+0.062,+0.562,+0.312
$EULER,171219,232004.900,+193.188,+8.000,-0.750
$GPRMC,232005.000,A,3950.5627,N,10502.1898,W,15.63,263.63,191217,,,A*43
$GYRO,171219,232005.000,+0.000,+0.312,+0.438
$EULER,171219,232005.000,+193.188,+8.000,-0.625
$GPRMC,232005.100,A,3950.5627,N,10502.1903,W,15.67,263.61,191217,,,A*47
$GYRO,171219,232005.100,+0.938,+2.688,+0.812
$EULER,171219,232005.100,+193.125,+7.750,-0.688
$GPRMC,232005.200,A,3950.5626,N,10502.1908,W,15.72,263.60,191217,,,A*4B
$GYRO,171219,232005.200,+2.125,+3.375,+0.188
$EULER,171219,232005.200,+193.125,+7.375,-0.938
$GPRMC,232005.300,A,3950.5626,N,10502.1913,W,15.76,263.65,191217,,,A*41
$GYRO,171219,232005.300,+2.875,-1.250,+0.188
$EULER,171219,232005.300,+193.125,+7.250,-1.125
$GPRMC,232005.400,A,3950.5626,N,10502.1918,W,15.80,263.74,191217,,,A*44
$GYRO,171219,232005.400,+2.812,+1.000,+0.438
$EULER,171219,232005.400,+193.062,+7.375,-1.438
$GPRMC,232005.500,A,3950.5625,N,10502.1923,W,15.85,263.85,191217,,,A*45
$GYRO,171219,232005.500,+1.375,-2.938,+0.625
$EULER,171219,232005.500,+193.062,+7.625,-1.688
$GPRMC,232005.600,A,3950.5625,N,10502.1928,W,15.90,263.89,191217,,,A*45
$GYRO,171219,232005.600,-0.500,-2.125,-0.250
$EULER,171219,232005.600,+193.062,+7.938,-1.562
$GPRMC,232005.700,A,3950.5625,N,10502.1933,W,15.95,263.87,191217,,,A*45
$GYRO,171219,232005.700,-1.875,+3.688,+0.750
$EULER,171219,232005.700,+193.000,+7.750,-1.500
$GPRMC,232005.800,A,3950.5624,N,10502.1938,W,16.00,263.79,191217,,,A*4E
$GYRO,171219,232005.800,+0.750,+2.188,-0.625
$EULER,171219,232005.800,+193.000,+7.438,-1.250
$GPRMC,232005.900,A,3950.5624,N,10502.1942,W,16.04,263.77,191217,,,A*48
$GYRO,171219,232005.900,-0.875,+0.562,+0.625
$EULER,171219,232005.900,+193.000,+7.250,-1.125
$GPRMC,232006.000,A,3950.5623,N,10502.1946,W,16.08,263.77,191217,,,A*4D
$GYRO,171219,232006.000,+2.375,-2.688,+1.000
$EULER,171219,232006.000,+193.000,+7.375,-1.062
$GPRMC,232006.100,A,3950.5623,N,10502.1952,W,16.12,263.84,191217,,,A*4E
$GYRO,171219,232006.100,+7.062,+0.188,+0.562
$EULER,171219,232006.100,+192.938,+7.438,-1.250
$GPRMC,232006.200,A,3950.5623,N,10502.1958,W,16.15,263.96,191217,,,A*43
$GYRO,171219,232006.200,-8.812,+5.688,+1.625
$EULER,171219,232006.200,+192.875,+7.000,-1.000
$GPRMC,232006.300,A,3950.5624,N,10502.1964,W,16.19,264.06,191217,,,A*48
$GYRO,171219,232006.300,+0.375,+4.312,+1.562
$EULER,171219,232006.300,+192.812,+6.250,-1.000
$GPRMC,232006.400,A,3950.5624,N,10502.1970,W,16.24,264.10,191217,,,A*43
$GYRO,171219,232006.400,-1.625,-7.438,+0.438
$EULER,171219,232006.400,+192.688,+6.312,-1.250
$GPRMC,232006.500,A,3950.5625,N,10502.1976,W,16.29,264.19,191217,,,A*41
$GYRO,171219,232006.500,+1.000,-5.938,+2.125
$EULER,171219,232006.500,+192.625,+6.938,-1.188
$GPRMC,232006.600,A,3950.5625,N,10502.1981,W,16.34,264.36,191217,,,A*4B
$GYRO,171219,232006.600,+3.500,-2.312,+1.750
$EULER,171219,232006.600,+192.438,+7.312,-1.375
$GPRMC,232006.700,A,3950.5626,N,10502.1987,W,16.38,264.72,191217,,,A*43
$GYRO,171219,232006.700,-2.000,+0.312,+1.000
$EULER,171219,232006.700,+192.312,+7.250,-1.250
$GPRMC,232006.800,A,3950.5627,N,10502.1994,W,16.42,264.93,191217,,,A*4D
$GYRO,171219,232006.800,+2.562,+4.125,+0.875
$EULER,171219,232006.800,+192.188,+7.000,-1.312
$GPRMC,232006.900,A,3950.5627,N,10502.2000,W,16.60,265.14,191217,,,A*45
$GYRO,171219,232006.900,+0.500,-2.500,+0.312
$EULER,171219,232006.900,+192.125,+6.875,-1.188
$GPRMC,232007.000,A,3950.5632,N,10502.2006,W,16.67,265.37,191217,,,A*49
$GYRO,171219,232007.000,-3.000,-1.500,+0.875
$EULER,171219,232007.000,+192.062,+7.000,-0.938
$GPRMC,232007.100,A,3950.5635,N,10502.2013,W,16.85,265.48,191217,,,A*4F
$GYRO,171219,232007.100,-1.250,+5.812,+1.312
$EULER,171219,232007.100,+191.938,+6.750,-0.750
$GPRMC,232007.200,A,3950.5637,N,10502.2020,W,16.88,265.64,191217,,,A*4D
$GYRO,171219,232007.200,+0.312,+1.000,+0.875
$EULER,171219,232007.200,+191.875,+6.562,-0.750
$GPRMC,232007.300,A,3950.5641,N,10502.2028,W,16.94,265.83,191217,,,A*41
$GYRO,171219,232007.300,+0.000,+2.875,+0.750
$EULER,171219,232007.300,+191.812,+6.250,-0.625
$GPRMC,232007.400,A,3950.5644,N,10502.2036,W,17.02,266.11,191217,,,A*4A
$GYRO,171219,232007.400,+3.875,+2.688,+1.062
$EULER,171219,232007.400,+191.750,+5.938,-0.812
$GPRMC,232007.500,A,3950.5647,N,10502.2043,W,17.25,266.31,191217,,,A*4D
$GYRO,171219,232007.500,+1.688,-0.812,+0.625
$EULER,171219,232007.500,+191.688,+6.000,-0.938
$GPRMC,232007.600,A,3950.5649,N,10502.2050,W,17.29,266.47,191217,,,A*4F
$GYRO,171219,232007.600,+2.375,-2.375,+0.250
$EULER,171219,232007.600,+191.625,+6.062,-1.000
$GPRMC,232007.700,A,3950.5652,N,10502.2058,W,17.37,266.72,191217,,,A*45
$GYRO,171219,232007.700,+1.062,+0.562,+1.375
$EULER,171219,232007.700,+191.562,+6.062,-1.188
$GPRMC,232007.800,A,3950.5653,N,10502.2064,W,17.61,267.00,191217,,,A*43
$GYRO,171219,232007.800,-1.125,+1.875,+0.375
$EULER,171219,232007.800,+191.562,+5.938,-1.188
$GPRMC,232007.900,A,3950.5655,N,10502.2071,W,17.65,267.13,191217,,,A*46
$GYRO,171219,232007.900,-3.625,-0.688,+0.688
$EULER,171219,232007.900,+191.500,+5.938,-1.000
$GPRMC,232008.000,A,3950.5656,N,10502.2078,W,17.71,267.24,191217,,,A*4B
$GYRO,171219,232008.000,+3.688,+0.250,-1.312
$EULER,171219,232008.000,+191.500,+6.000,-1.000
$GPRMC,232008.100,A,3950.5657,N,10502.2084,W,17.76,267.29,191217,,,A*42
$GYRO,171219,232008.100,+3.000,-2.000,-1.000
$EULER,171219,232008.100,+191.438,+5.875,-1.125
$GPRMC,232008.200,A,3950.5658,N,10502.2091,W,17.82,267.39,191217,,,A*40
$GYRO,171219,232008.200,+3.312,-0.875,-1.062
$EULER,171219,232008.200,+191.438,+5.938,-1.125
$GPRMC,232008.300,A,3950.5659,N,10502.2098,W,17.88,267.53,191217,,,A*4F
$GYRO,171219,232008.300,+2.250,-3.750,-1.125
$EULER,171219,232008.300,+191.438,+6.188,-1.000
$GPRMC,232008.400,A,3950.5660,N,10502.2104,W,17.93,267.58,191217,,,A*47
$GYRO,171219,232008.400,+3.312,+3.062,+0.250
$EULER,171219,232008.400,+191.438,+6.188,-1.250
$GPRMC,232008.500,A,3950.5661,N,10502.2111,W,17.99,267.64,191217,,,A*46
$GYRO,171219,232008.500,-3.375,+4.125,-0.688
$EULER,171219,232008.500,+191.500,+5.875,-1.188
$GPRMC,232008.600,A,3950.5662,N,10502.2119,W,18.15,267.67,191217,,,A*46
$GYRO,171219,232008.600,-0.312,+2.000,-0.125
$EULER,171219,232008.600,+191.500,+4.812,-0.938
$GPRMC,232008.700,A,3950.5663,N,10502.2126,W,18.22,267.73,191217,,,A*4B
$GYRO,171219,232008.700,+1.250,-2.312,-0.125
$EULER,171219,232008.700,+191.500,+5.000,-1.125
$GPRMC,232008.800,A,3950.5664,N,10502.2133,W,18.41,267.76,191217,,,A*47
$GYRO,171219,232008.800,+0.625,-0.938,-0.875
$EULER,171219,232008.800,+191.500,+5.188,-1.250
$GPRMC,232008.900,A,3950.5665,N,10502.2140,W,18.45,267.80,191217,,,A*4E
$GYRO,171219,232008.900,-0.562,+0.250,+0.000
$EULER,171219,232008.900,+191.500,+5.125,-1.312
$GPRMC,232009.000,A,3950.5665,N,10502.2148,W,18.51,267.77,191217,,,A*43
$GYRO,171219,232009.000,+0.188,-0.500,+1.375
$EULER,171219,232009.000,+191.500,+5.062,-1.500
$GPRMC,232009.100,A,3950.5666,N,10502.2155,W,18.56,267.71,191217,,,A*4C
$GYRO,171219,232009.100,-0.750,+0.812,+0.562
$EULER,171219,232009.100,+191.500,+5.125,-1.562
$GPRMC,232009.200,A,3950.5666,N,10502.2162,W,18.61,267.65,191217,,,A*4A
$GYRO,171219,232009.200,+2.250,-1.375,+0.125
$EULER,171219,232009.200,+191.438,+5.250,-1.750
$GPRMC,232009.300,A,3950.5667,N,10502.2169,W,18.66,267.55,191217,,,A*45
$GYRO,171219,232009.300,-1.312,+0.000,+0.312
$EULER,171219,232009.300,+191.438,+5.312,-1.750
$GPRMC,232009.400,A,3950.5668,N,10502.2176,W,18.71,267.48,191217,,,A*49
$GYRO,171219,232009.400,-1.500,-0.375,+0.562
$EULER,171219,232009.400,+191.438,+5.438,-1.875
$GPRMC,232009.500,A,3950.5669,N,10502.2183,W,18.75,267.56,191217,,,A*48
$GYRO,171219,232009.500,-0.438,-0.625,+0.750
$EULER,171219,232009.500,+191.438,+5.562,-1.875
$GPRMC,232009.600,A,3950.5670,N,10502.2190,W,18.79,267.65,191217,,,A*4D
$GYRO,171219,232009.600,+3.375,+0.125,+0.000
$EULER,171219,232009.600,+191.875,+5.625,-1.938
$GPRMC,232009.700,A,3950.5670,N,10502.2198,W,18.83,267.70,191217,,,A*45
$GYRO,171219,232009.700,+5.812,+0.250,+0.438
$EULER,171219,232009.700,+192.375,+5.688,-2.188
$GPRMC,232009.800,A,3950.5671,N,10502.2205,W,18.86,267.73,191217,,,A*4A
$GYRO,171219,232009.800,-2.312,+0.625,-0.125
$EULER,171219,232009.800,+192.812,+5.625,-2.562
$GPRMC,232009.900,A,3950.5673,N,10502.2213,W,18.90,267.86,191217,,,A*43
$GYRO,171219,232009.900,-5.125,+3.812,+0.062
$EULER,171219,232009.900,+193.312,+5.438,-2.312
$GPRMC,232010.000,A,3950.5674,N,10502.2221,W,18.93,267.94,191217,,,A*44
$GYRO,171219,232010.000,-3.688,+1.875,-0.062
$EULER,171219,232010.000,+194.125,+5.250,-2.500
$GPRMC,232010.100,A,3950.5674,N,10502.2228,W,18.95,268.03,191217,,,A*4B
$GYRO,171219,232010.100,+8.562,-0.562,+1.500
$EULER,171219,232010.100,+194.062,+5.312,-2.875
$GPRMC,232010.200,A,3950.5675,N,10502.2236,W,18.97,268.16,191217,,,A*40
$GYRO,171219,232010.200,+0.125,-9.750,-1.062
$EULER,171219,232010.200,+194.188,+6.188,-2.500
$GPRMC,232010.300,A,3950.5676,N,10502.2243,W,18.97,268.41,191217,,,A*42
$GYRO,171219,232010.300,-3.812,-3.125,+1.062
$EULER,171219,232010.300,+194.188,+6.875,-2.375
$GPRMC,232010.400,A,3950.5677,N,10502.2251,W,18.97,268.70,191217,,,A*45
$GYRO,171219,232010.400,-7.562,-2.250,+1.625
$EULER,171219,232010.400,+194.000,+6.812,-2.812
$GPRMC,232010.500,A,3950.5678,N,10502.2258,W,18.95,268.86,191217,,,A*49
$GYRO,171219,232010.500,-2.562,-4.188,+0.312
$EULER,171219,232010.500,+194.000,+6.750,-2.812
$GPRMC,232010.600,A,3950.5679,N,10502.2265,W,18.92,269.03,191217,,,A*4E
$GYRO,171219,232010.600,+3.125,-1.938,-0.688
$EULER,171219,232010.600,+193.938,+6.938,-2.688
$GPRMC,232010.700,A,3950.5679,N,10502.2272,W,18.87,269.31,191217,,,A*4C
$GYRO,171219,232010.700,+0.000,+0.688,+1.062
$EULER,171219,232010.700,+194.375,+6.938,-2.875
$GPRMC,232010.800,A,3950.5680,N,10502.2279,W,18.70,269.52,191217,,,A*43
$GYRO,171219,232010.800,+0.500,+0.375,+0.562
$EULER,171219,232010.800,+195.375,+6.812,-2.875
$GPRMC,232010.900,A,3950.5680,N,10502.2285,W,18.63,269.68,191217,,,A*4A
$GYRO,171219,232010.900,-0.688,+1.812,+1.438
$EULER,171219,232010.900,+196.750,+6.688,-2.875
$GPRMC,232011.000,A,3950.5680,N,10502.2292,W,18.47,269.78,191217,,,A*43
$GYRO,171219,232011.000,+5.125,-0.875,+1.500
$EULER,171219,232011.000,+197.875,+6.688,-2.875
$GPRMC,232011.100,A,3950.5680,N,10502.2298,W,18.44,269.87,191217,,,A*4B
$GYRO,171219,232011.100,+2.000,-0.875,-0.062
$EULER,171219,232011.100,+198.688,+6.750,-2.875
$GPRMC,232011.200,A,3950.5681,N,10502.2305,W,18.39,269.94,191217,,,A*44
$GYRO,171219,232011.200,-2.125,+1.125,+0.875
$EULER,171219,232011.200,+199.562,+6.688,-2.875
$GPRMC,232011.300,A,3950.5681,N,10502.2312,W,18.32,269.94,191217,,,A*48
$GYRO,171219,232011.300,-1.562,+0.125,-0.375
$EULER,171219,232011.300,+200.438,+6.625,-2.812
$GPRMC,232011.400,A,3950.5682,N,10502.2318,W,18.14,269.85,191217,,,A*42
$GYRO,171219,232011.400,+1.125,-2.125,+0.375
$EULER,171219,232011.400,+200.875,+6.625,-2.625
$GPRMC,232011.500,A,3950.5682,N,10502.2325,W,18.08,269.72,191217,,,A*48
$GYRO,171219,232011.500,-2.125,-2.625,+0.625
$EULER,171219,232011.500,+201.625,+6.750,-2.562
$GPRMC,232011.600,A,3950.5683,N,10502.2331,W,17.92,269.52,191217,,,A*41
$GYRO,171219,232011.600,+0.562,+1.438,+0.625
$EULER,171219,232011.600,+201.750,+6.812,-2.562
$GPRMC,232011.700,A,3950.5684,N,10502.2337,W,17.85,269.41,191217,,,A*45
$GYRO,171219,232011.700,-0.812,-0.438,+0.125
$EULER,171219,232011.700,+201.938,+6.750,-2.500
$GPRMC,232011.800,A,3950.5684,N,10502.2344,W,17.69,269.08,191217,,,A*41
$GYRO,171219,232011.800,+0.250,-1.188,+0.562
$EULER,171219,232011.800,+201.938,+6.750,-2.438
$GPRMC,232011.900,A,3950.5685,N,10502.2350,W,17.63,268.95,191217,,,A*4B
$GYRO,171219,232011.900,+0.812,-2.000,+0.312
$EULER,171219,232011.900,+202.625,+6.812,-2.500
$GPRMC,232012.000,A,3950.5685,N,10502.2356,W,17.45,268.59,191217,,,A*43
$GYRO,171219,232012.000,-0.625,-0.562,-0.125
$EULER,171219,232012.000,+202.750,+6.875,-2.500
$GPRMC,232012.100,A,3950.5686,N,10502.2363,W,17.43,268.56,191217,,,A*4E
$GYRO,171219,232012.100,+1.438,-0.125,+0.375
$EULER,171219,232012.100,+203.000,+7.000,-2.375
$GPRMC,232012.200,A,3950.5687,N,10502.2369,W,17.40,268.54,191217,,,A*47
$GYRO,171219,232012.200,-1.000,-2.625,-0.938
$EULER,171219,232012.200,+203.312,+7.062,-2.312
$GPRMC,232012.300,A,3950.5688,N,10502.2374,W,17.33,268.42,191217,,,A*46
$GYRO,171219,232012.300,+1.125,+2.438,-0.625
$EULER,171219,232012.300,+203.250,+7.000,-2.375
$GPRMC,232012.400,A,3950.5688,N,10502.2380,W,17.26,268.23,191217,,,A*49
$GYRO,171219,232012.400,+0.812,-0.688,-1.062
$EULER,171219,232012.400,+203.375,+7.000,-2.250
$GPRMC,232012.500,A,3950.5689,N,10502.2386,W,17.05,267.92,191217,,,A*4B
$GYRO,171219,232012.500,+0.250,-0.750,-0.688
$EULER,171219,232012.500,+203.250,+7.188,-2.188
$GPRMC,232012.600,A,3950.5690,N,10502.2392,W,16.98,267.54,191217,,,A*4A
$GYRO,171219,232012.600,+2.250,-0.500,-0.688
$EULER,171219,232012.600,+203.250,+7.250,-2.125
$GPRMC,232012.700,A,3950.5690,N,10502.2398,W,16.76,267.23,191217,,,A*41
$GYRO,171219,232012.700,-3.625,+0.875,-1.188
$EULER,171219,232012.700,+203.375,+7.250,-2.062
$GPRMC,232012.800,A,3950.5691,N,10502.2405,W,16.70,266.99,191217,,,A*4A
$GYRO,171219,232012.800,-1.375,+1.688,-0.938
$EULER,171219,232012.800,+203.500,+7.188,-1.938
$GPRMC,232012.900,A,3950.5692,N,10502.2412,W,16.52,266.79,191217,,,A*40
$GYRO,171219,232012.900,-2.812,-0.312,-1.438
$EULER,171219,232012.900,+203.062,+6.812,-1.750
$GPRMC,232013.000,A,3950.5693,N,10502.2418,W,16.46,266.63,191217,,,A*4D
$GYRO,171219,232013.000,-1.125,-2.438,-1.438
$EULER,171219,232013.000,+202.438,+6.875,-1.562
$GPRMC,232013.100,A,3950.5694,N,10502.2424,W,16.42,266.61,191217,,,A*42
$GYRO,171219,232013.100,-1.625,-1.875,-1.500
$EULER,171219,232013.100,+201.875,+7.000,-1.500
$GPRMC,232013.200,A,3950.5694,N,10502.2430,W,16.38,266.62,191217,,,A*4A
$GYRO,171219,232013.200,-1.062,-0.125,-1.438
$EULER,171219,232013.200,+201.500,+7.125,-1.438
$GPRMC,232013.300,A,3950.5694,N,10502.2435,W,16.35,266.65,191217,,,A*44
$GYRO,171219,232013.300,-2.000,+1.062,-1.875
$EULER,171219,232013.300,+201.562,+7.188,-1.312
$GPRMC,232013.400,A,3950.5695,N,10502.2441,W,16.31,266.66,191217,,,A*46
$GYRO,171219,232013.400,-1.812,+1.375,-1.750
$EULER,171219,232013.400,+201.750,+7.125,-1.312
$GPRMC,232013.500,A,3950.5695,N,10502.2447,W,16.27,266.65,191217,,,A*45
$GYRO,171219,232013.500,-1.188,-2.500,-1.938
$EULER,171219,232013.500,+201.812,+7.188,-1.250
$GPRMC,232013.600,A,3950.5695,N,10502.2453,W,16.22,266.65,191217,,,A*46
$GYRO,171219,232013.600,-3.000,-1.688,-1.938
$EULER,171219,232013.600,+201.688,+7.312,-1.250
$GPRMC,232013.700,A,3950.5695,N,10502.2459,W,16.17,266.65,191217,,,A*4B
$GYRO,171219,232013.700,+2.312,-0.188,-1.312
$EULER,171219,232013.700,+201.375,+7.438,-1.312
$GPRMC,232013.800,A,3950.5695,N,10502.2465,W,16.12,266.72,191217,,,A*48
$GYRO,171219,232013.800,+1.062,+1.625,-1.125
$EULER,171219,232013.800,+201.188,+7.438,-1.375
$GPRMC,232013.900,A,3950.5694,N,10502.2471,W,16.06,266.82,191217,,,A*47
$GYRO,171219,232013.900,-1.000,-0.062,-1.562
$EULER,171219,232013.900,+201.000,+7.312,-1.375
$GPRMC,232014.000,A,3950.5694,N,10502.2477,W,15.86,267.00,191217,,,A*4F
$GYRO,171219,232014.000,+1.562,+1.438,-1.062
$EULER,171219,232014.000,+201.188,+7.312,-1.500
$GPRMC,232014.100,A,3950.5693,N,10502.2483,W,15.82,267.07,191217,,,A*41
$GYRO,171219,232014.100,+4.438,+0.812,-0.938
$EULER,171219,232014.100,+201.312,+7.250,-1.688
$GPRMC,232014.200,A,3950.5693,N,10502.2489,W,15.64,267.35,191217,,,A*41
$GYRO,171219,232014.200,-1.938,-2.062,-1.562
$EULER,171219,232014.200,+201.438,+7.188,-1.688
$GPRMC,232014.300,A,3950.5693,N,10502.2495,W,15.45,267.79,191217,,,A*46
$GYRO,171219,232014.300,+1.688,+2.125,-0.938
$EULER,171219,232014.300,+201.562,+7.062,-1.750
$GPRMC,232014.400,A,3950.5693,N,10502.2501,W,15.27,268.24,191217,,,A*4E
$GYRO,171219,232014.400,+0.938,+0.750,-0.938
$EULER,171219,232014.400,+201.625,+7.000,-1.812
$GPRMC,232014.500,A,3950.5693,N,10502.2507,W,15.20,268.60,191217,,,A*4E
$GYRO,171219,232014.500,-2.312,+1.312,-0.750
$EULER,171219,232014.500,+201.750,+7.000,-1.875
$GPRMC,232014.600,A,3950.5693,N,10502.2513,W,15.04,268.80,191217,,,A*40
$GYRO,171219,232014.600,-1.500,+2.250,-1.312
$EULER,171219,232014.600,+201.812,+6.938,-2.000
$GPRMC,232014.700,A,3950.5693,N,10502.2519,W,15.00,269.13,191217,,,A*44
$GYRO,171219,232014.700,-0.062,+0.875,-1.438
$EULER,171219,232014.700,+201.938,+6.875,-2.062
$GPRMC,232014.800,A,3950.5693,N,10502.2525,W,14.93,269.52,191217,,,A*4A
$GYRO,171219,232014.800,-3.312,-0.312,-1.562
$EULER,171219,232014.800,+203.125,+6.812,-2.000
$GPRMC,232014.900,A,3950.5694,N,10502.2530,W,14.72,269.95,191217,,,A*4C
$GYRO,171219,232014.900,-3.500,+0.500,-1.188
$EULER,171219,232014.900,+204.062,+6.938,-2.062
$GPRMC,232015.000,A,3950.5694,N,10502.2536,W,14.69,270.34,191217,,,A*4B
$GYRO,171219,232015.000,-1.625,+1.438,-1.000
$EULER,171219,232015.000,+204.625,+6.812,-1.938
$GPRMC,232015.100,A,3950.5694,N,10502.2541,W,14.65,270.43,191217,,,A*46
$GYRO,171219,232015.100,-0.875,+0.500,-1.562
$EULER,171219,232015.100,+205.438,+6.750,-1.938
$GPRMC,232015.200,A,3950.5694,N,10502.2547,W,14.59,270.61,191217,,,A*4C
$GYRO,171219,232015.200,-2.250,+0.750,-1.375
$EULER,171219,232015.200,+205.688,+6.250,-1.812
$GPRMC,232015.300,A,3950.5690,N,10502.2558,W,14.41,270.80,191217,,,A*41
$GYRO,171219,232015.300,-2.188,-2.125,-1.625
$EULER,171219,232015.300,+206.500,+6.375,-1.500
$GPRMC,232015.400,A,3950.5689,N,10502.2566,W,14.36,271.02,191217,,,A*48
$GYRO,171219,232015.400,+0.812,-0.812,-0.938
$EULER,171219,232015.400,+207.188,+6.500,-1.312
$GPRMC,232015.500,A,3950.5689,N,10502.2572,W,14.28,271.12,191217,,,A*42
$GYRO,171219,232015.500,+0.125,+0.688,-1.312
$EULER,171219,232015.500,+207.625,+6.438,-1.250
$GPRMC,232015.600,A,3950.5689,N,10502.2577,W,14.21,271.14,191217,,,A*4B
$GYRO,171219,232015.600,-3.000,-0.625,-1.875
$EULER,171219,232015.600,+208.062,+6.438,-1.250
$GPRMC,232015.700,A,3950.5690,N,10502.2582,W,14.14,271.17,191217,,,A*4D
$GYRO,171219,232015.700,-7.438,-1.438,-1.625
$EULER,171219,232015.700,+208.250,+6.188,-1.062
$GPRMC,232015.800,A,3950.5690,N,10502.2584,W,13.97,271.41,191217,,,A*4B
$GYRO,171219,232015.800,+1.125,-2.125,+0.500
$EULER,171219,232015.800,+208.438,+5.938,-1.125
$GPRMC,232015.900,A,3950.5690,N,10502.2588,W,13.90,271.77,191217,,,A*44
$GYRO,171219,232015.900,+1.938,+2.375,-2.312
$EULER,171219,232015.900,+208.750,+5.938,-1.188
$GPRMC,232016.000,A,3950.5691,N,10502.2591,W,13.72,271.90,191217,,,A*42
$GYRO,171219,232016.000,-3.812,+0.875,-2.188
$EULER,171219,232016.000,+209.312,+6.000,-1.125
$GPRMC,232016.100,A,3950.5691,N,10502.2597,W,13.71,271.92,191217,,,A*44
$GYRO,171219,232016.100,+0.438,-4.125,-1.125
$EULER,171219,232016.100,+209.562,+6.125,-0.750
$GPRMC,232016.200,A,3950.5692,N,10502.2601,W,13.67,271.99,191217,,,A*44
$GYRO,171219,232016.200,+2.500,-0.312,-1.125
$EULER,171219,232016.200,+209.688,+6.250,-0.750
$GPRMC,232016.300,A,3950.5692,N,10502.2606,W,13.51,272.25,191217,,,A*43
$GYRO,171219,232016.300,+4.438,+0.812,-1.375
$EULER,171219,232016.300,+210.125,+6.312,-0.938
$GPRMC,232016.400,A,3950.5693,N,10502.2610,W,13.31,272.45,191217,,,A*42
$GYRO,171219,232016.400,+2.938,-2.000,-1.312
$EULER,171219,232016.400,+210.375,+6.562,-1.125
$GPRMC,232016.500,A,3950.5693,N,10502.2612,W,13.06,272.62,191217,,,A*40
$GYRO,171219,232016.500,-1.750,-3.938,-2.812
$EULER,171219,232016.500,+210.688,+6.938,-1.000
$GPRMC,232016.600,A,3950.5693,N,10502.2615,W,12.82,272.94,191217,,,A*40
$GYRO,171219,232016.600,-1.375,+0.250,-3.000
$EULER,171219,232016.600,+211.062,+7.188,-0.750
$GPRMC,232016.700,A,3950.5693,N,10502.2619,W,12.58,273.29,191217,,,A*4D
$GYRO,171219,232016.700,-2.000,+2.188,-3.562
$EULER,171219,232016.700,+211.438,+5.812,-0.312
$GPRMC,232016.800,A,3950.5693,N,10502.2621,W,12.32,273.47,191217,,,A*4D
$GYRO,171219,232016.800,-1.812,+1.875,-4.000
$EULER,171219,232016.800,+212.125,+5.625,-0.312
$GPRMC,232016.900,A,3950.5693,N,10502.2624,W,12.15,273.63,191217,,,A*4A
$GYRO,171219,232016.900,+3.188,+0.562,-3.000
$EULER,171219,232016.900,+212.500,+5.625,-0.562
$GPRMC,232017.000,A,3950.5693,N,10502.2627,W,11.97,273.87,191217,,,A*42
$GYRO,171219,232017.000,+0.625,+0.188,-4.250
$EULER,171219,232017.000,+212.875,+2.688,+0.188
$GPRMC,232017.100,A,3950.5694,N,10502.2630,W,11.92,273.97,191217,,,A*46
$GYRO,171219,232017.100,+0.000,-3.438,-4.375
$EULER,171219,232017.100,+213.000,+2.375,+0.250
$GPRMC,232017.200,A,3950.5695,N,10502.2634,W,11.74,274.32,191217,,,A*40
$GYRO,171219,232017.200,+1.688,-1.562,-5.375
$EULER,171219,232017.200,+213.125,+2.625,+0.188
$GPRMC,232017.300,A,3950.5695,N,10502.2636,W,11.51,274.79,191217,,,A*4B
$GYRO,171219,232017.300,-0.688,-2.125,-7.188
$EULER,171219,232017.300,+212.750,+2.812,+0.125
$GPRMC,232017.400,A,3950.5695,N,10502.2638,W,11.24,275.40,191217,,,A*4B
$GYRO,171219,232017.400,+0.375,-0.312,-8.312
$EULER,171219,232017.400,+213.562,+2.125,+0.562
$GPRMC,232017.500,A,3950.5696,N,10502.2640,W,10.92,276.18,191217,,,A*44
$GYRO,171219,232017.500,+2.562,-1.250,-9.250
$EULER,171219,232017.500,+214.375,+1.438,+1.250
$GPRMC,232017.600,A,3950.5696,N,10502.2642,W,10.59,277.06,191217,,,A*4C
$GYRO,171219,232017.600,+1.625,-0.438,-11.062
$EULER,171219,232017.600,+215.375,+1.500,+1.000
$GPRMC,232017.700,A,3950.5697,N,10502.2645,W,10.26,278.31,191217,,,A*48
$GYRO,171219,232017.700,+0.375,+2.188,-12.000
$EULER,171219,232017.700,+216.500,+1.438,+0.938
$GPRMC,232017.800,A,3950.5698,N,10502.2648,W,9.97,279.62,191217,,,A*70
$GYRO,171219,232017.800,-0.688,+1.438,-12.375
$EULER,171219,232017.800,+217.188,+0.938,+1.188
$GPRMC,232017.900,A,3950.5699,N,10502.2651,W,9.77,280.46,191217,,,A*76
$GYRO,171219,232017.900,+0.250,+1.000,-12.812
$EULER,171219,232017.900,+217.750,+0.375,+1.688
$GPRMC,232018.000,A,3950.5700,N,10502.2654,W,9.71,280.87,191217,,,A*7F
$GYRO,171219,232018.000,-3.000,+0.188,-13.562
$EULER,171219,232018.000,+219.000,+0.250,+1.750
$GPRMC,232018.100,A,3950.5701,N,10502.2657,W,9.64,280.91,191217,,,A*7F
$GYRO,171219,232018.100,-2.062,-0.812,-12.625
$EULER,171219,232018.100,+220.312,+0.250,+1.875
$GPRMC,232018.200,A,3950.5702,N,10502.2660,W,9.46,281.04,191217,,,A*76
$GYRO,171219,232018.200,+1.312,+6.438,-12.562
$EULER,171219,232018.200,+221.500,+0.125,+1.812
$GPRMC,232018.300,A,3950.5703,N,10502.2663,W,9.42,281.34,191217,,,A*72
$GYRO,171219,232018.300,-2.500,+0.750,-15.562
$EULER,171219,232018.300,+222.938,+0.125,+2.188
$GPRMC,232018.400,A,3950.5708,N,10502.2662,W,9.35,281.77,191217,,,A*78
$GYRO,171219,232018.400,+3.000,-4.812,-15.438
$EULER,171219,232018.400,+224.438,+0.375,+2.062
$GPRMC,232018.500,A,3950.5711,N,10502.2663,W,9.18,282.50,191217,,,A*79
$GYRO,171219,232018.500,+0.438,-4.938,-17.938
$EULER,171219,232018.500,+226.062,+0.812,+1.875
$GPRMC,232018.600,A,3950.5712,N,10502.2667,W,9.12,283.28,191217,,,A*79
$GYRO,171219,232018.600,-3.375,+1.688,-20.125
$EULER,171219,232018.600,+227.938,+1.000,+2.062
$GPRMC,232018.700,A,3950.5714,N,10502.2670,W,8.96,283.78,191217,,,A*70
$GYRO,171219,232018.700,-3.500,-1.938,-20.375
$EULER,171219,232018.700,+229.875,+1.125,+2.375
$GPRMC,232018.800,A,3950.5716,N,10502.2673,W,8.90,284.41,191217,,,A*75
$GYRO,171219,232018.800,+2.438,+1.500,-21.625
$EULER,171219,232018.800,+231.875,+1.188,+2.375
$GPRMC,232018.900,A,3950.5717,N,10502.2676,W,8.83,285.17,191217,,,A*70
$GYRO,171219,232018.900,+5.688,+2.875,-22.000
$EULER,171219,232018.900,+232.625,+1.125,+2.000
$GPRMC,232019.000,A,3950.5718,N,10502.2679,W,8.63,286.35,191217,,,A*75
$GYRO,171219,232019.000,+8.938,-0.812,-21.812
$EULER,171219,232019.000,+233.375,+0.938,+1.125
$GPRMC,232019.100,A,3950.5719,N,10502.2681,W,8.59,287.18,191217,,,A*75
$GYRO,171219,232019.100,+0.750,-9.625,-24.500
$EULER,171219,232019.100,+234.312,+1.500,+0.688
$GPRMC,232019.200,A,3950.5719,N,10502.2683,W,8.53,288.35,191217,,,A*7E
$GYRO,171219,232019.200,+7.375,-17.375,-24.250
$EULER,171219,232019.200,+235.312,+2.938,+0.750
$GPRMC,232019.300,A,3950.5720,N,10502.2685,W,8.34,289.48,191217,,,A*79
$GYRO,171219,232019.300,+5.062,-17.062,-22.500
$EULER,171219,232019.300,+235.875,+4.625,-0.250
$GPRMC,232019.400,A,3950.5721,N,10502.2687,W,8.30,290.51,191217,,,A*79
$GYRO,171219,232019.400,+10.688,-18.625,-25.250
$EULER,171219,232019.400,+236.438,+5.875,-1.062
$GPRMC,232019.500,A,3950.5723,N,10502.2688,W,8.06,291.71,191217,,,A*73
$GYRO,171219,232019.500,+6.562,-13.812,-26.750
$EULER,171219,232019.500,+237.875,+7.062,-2.125
$GPRMC,232019.600,A,3950.5724,N,10502.2691,W,7.99,292.67,191217,,,A*72
$GYRO,171219,232019.600,-0.812,-7.938,-29.625
$EULER,171219,232019.600,+239.375,+7.875,-3.062
$GPRMC,232019.700,A,3950.5726,N,10502.2692,W,7.76,293.79,191217,,,A*7D
$GYRO,171219,232019.700,-5.438,-9.062,-27.688
$EULER,171219,232019.700,+240.438,+8.562,-3.000
$GPRMC,232019.800,A,3950.5727,N,10502.2694,W,7.76,295.00,191217,,,A*7D
$GYRO,171219,232019.800,+6.438,+3.438,-27.562
$EULER,171219,232019.800,+241.375,+8.375,-3.688
$GPRMC,232019.900,A,3950.5728,N,10502.2697,W,7.76,295.80,191217,,,A*78
$GYRO,171219,232019.900,-0.500,-1.250,-31.062
$EULER,171219,232019.900,+244.188,+7.688,-4.500
$GPRMC,232020.000,A,3950.5729,N,10502.2699,W,7.79,296.93,191217,,,A*7A
$GYRO,171219,232020.000,+4.312,-1.062,-29.188
$EULER,171219,232020.000,+247.062,+7.500,-5.062
$GPRMC,232020.100,A,3950.5730,N,10502.2701,W,7.80,297.44,191217,,,A*7E
$GYRO,171219,232020.100,-0.188,+0.500,-29.750
$EULER,171219,232020.100,+248.875,+7.125,-5.625
$GPRMC,232020.200,A,3950.5731,N,10502.2703,W,7.81,298.07,191217,,,A*77
$GYRO,171219,232020.200,-3.625,-1.562,-30.000
$EULER,171219,232020.200,+250.125,+6.812,-5.812
$GPRMC,232020.300,A,3950.5732,N,10502.2706,W,7.83,298.79,191217,,,A*7B
$GYRO,171219,232020.300,-0.250,+3.438,-28.188
$EULER,171219,232020.300,+251.438,+6.562,-6.062
$GPRMC,232020.400,A,3950.5734,N,10502.2709,W,7.85,299.53,191217,,,A*7A
$GYRO,171219,232020.400,-3.688,-0.812,-29.125
$EULER,171219,232020.400,+252.375,+6.312,-6.250
$GPRMC,232020.500,A,3950.5735,N,10502.2711,W,7.87,300.12,191217,,,A*75
$GYRO,171219,232020.500,-0.750,+0.250,-27.312
$EULER,171219,232020.500,+253.688,+6.062,-6.500
$GPRMC,232020.600,A,3950.5736,N,10502.2714,W,7.87,300.68,191217,,,A*7D
$GYRO,171219,232020.600,+1.312,+2.438,-25.188
$EULER,171219,232020.600,+255.000,+5.625,-6.438
$GPRMC,232020.700,A,3950.5737,N,10502.2716,W,7.87,301.31,191217,,,A*72
$GYRO,171219,232020.700,+2.875,+0.438,-22.625
$EULER,171219,232020.700,+256.125,+5.188,-6.812
$GPRMC,232020.800,A,3950.5738,N,10502.2718,W,7.85,301.97,191217,,,A*72
$GYRO,171219,232020.800,+5.000,+1.250,-19.562
$EULER,171219,232020.800,+256.625,+4.875,-7.375
$GPRMC,232020.900,A,3950.5740,N,10502.2721,W,7.84,302.55,191217,,,A*7A
$GYRO,171219,232020.900,-1.000,-2.125,-17.812
$EULER,171219,232020.900,+257.375,+4.625,-7.812
$GPRMC,232021.000,A,3950.5742,N,10502.2723,W,7.82,303.01,191217,,,A*74
$GYRO,171219,232021.000,-2.688,-2.250,-14.938
$EULER,171219,232021.000,+258.625,+4.688,-7.812
$GPRMC,232021.100,A,3950.5744,N,10502.2726,W,7.82,303.51,191217,,,A*73
$GYRO,171219,232021.100,-11.500,+2.938,-14.438
$EULER,171219,232021.100,+260.062,+4.562,-7.188
$GPRMC,232021.200,A,3950.5746,N,10502.2729,W,7.82,304.07,191217,,,A*79
$GYRO,171219,232021.200,+0.562,+4.500,-10.312
$EULER,171219,232021.200,+261.250,+4.000,-6.875
$GPRMC,232021.300,A,3950.5748,N,10502.2731,W,7.82,304.65,191217,,,A*7B
$GYRO,171219,232021.300,+8.812,+1.562,-7.875
$EULER,171219,232021.300,+262.125,+3.688,-7.500
$GPRMC,232021.400,A,3950.5751,N,10502.2734,W,7.84,305.51,191217,,,A*71
$GYRO,171219,232021.400,-1.062,+0.250,-6.000
$EULER,171219,232021.400,+262.812,+3.750,-8.000
$GPRMC,232021.500,A,3950.5757,N,10502.2739,W,7.88,306.37,191217,,,A*74
$GYRO,171219,232021.500,-4.500,-8.938,-5.625
$EULER,171219,232021.500,+263.375,+3.938,-7.688
$GPRMC,232021.600,A,3950.5761,N,10502.2743,W,7.93,306.97,191217,,,A*7F
$GYRO,171219,232021.600,+1.438,-1.688,-5.375
$EULER,171219,232021.600,+263.688,+4.312,-7.438
$GPRMC,232021.700,A,3950.5766,N,10502.2747,W,8.12,307.62,191217,,,A*70
$GYRO,171219,232021.700,+1.500,+4.688,-3.500
$EULER,171219,232021.700,+263.750,+4.125,-7.438
$GPRMC,232021.800,A,3950.5768,N,10502.2750,W,8.16,308.46,191217,,,A*7A
$GYRO,171219,232021.800,-1.500,-0.938,-3.750
$EULER,171219,232021.800,+263.438,+4.062,-7.500
$GPRMC,232021.900,A,3950.5771,N,10502.2753,W,8.22,309.18,191217,,,A*7D
$GYRO,171219,232021.900,+2.250,-2.250,-3.812
$EULER,171219,232021.900,+263.500,+4.062,-7.688
$GPRMC,232022.000,A,3950.5774,N,10502.2755,W,8.28,309.83,191217,,,A*7C
$GYRO,171219,232022.000,+3.938,-0.875,-2.938
$EULER,171219,232022.000,+263.250,+4.000,-7.688
$GPRMC,232022.100,A,3950.5777,N,10502.2758,W,8.32,310.54,191217,,,A*7A
$GYRO,171219,232022.100,-4.250,-0.500,-2.125
$EULER,171219,232022.100,+262.938,+4.062,-7.688
$GPRMC,232022.200,A,3950.5780,N,10502.2759,W,8.36,311.84,191217,,,A*78
$GYRO,171219,232022.200,-0.188,+3.062,-1.688
$EULER,171219,232022.200,+263.000,+3.875,-7.625
$GPRMC,232022.300,A,3950.5783,N,10502.2761,W,8.41,313.14,191217,,,A*7A
$GYRO,171219,232022.300,+5.438,+0.000,-1.938
$EULER,171219,232022.300,+262.688,+3.750,-7.688
$GPRMC,232022.400,A,3950.5786,N,10502.2763,W,8.46,314.44,191217,,,A*7F
$GYRO,171219,232022.400,-1.062,+1.125,-1.000
$EULER,171219,232022.400,+262.562,+3.375,-7.438
$GPRMC,232022.500,A,3950.5789,N,10502.2764,W,8.50,315.90,191217,,,A*79
$GYRO,171219,232022.500,-2.625,-1.562,-0.875
$EULER,171219,232022.500,+262.438,+3.438,-7.188
$GPRMC,232022.600,A,3950.5792,N,10502.2765,W,8.56,317.37,191217,,,A*78
$GYRO,171219,232022.600,-3.000,-0.812,+0.375
$EULER,171219,232022.600,+262.125,+3.812,-7.312
$GPRMC,232022.700,A,3950.5795,N,10502.2766,W,8.61,318.85,191217,,,A*7F
$GYRO,171219,232022.700,+3.312,-4.188,-1.062
$EULER,171219,232022.700,+262.125,+4.188,-7.625
$GPRMC,232022.800,A,3950.5797,N,10502.2766,W,8.67,320.34,191217,,,A*75
$GYRO,171219,232022.800,-3.062,+0.562,-0.750
$EULER,171219,232022.800,+262.000,+4.375,-7.500
$GPRMC,232022.900,A,3950.5800,N,10502.2767,W,8.84,321.85,191217,,,A*72
$GYRO,171219,232022.900,-0.062,+2.188,-0.375
$EULER,171219,232022.900,+261.938,+4.375,-7.250
$GPRMC,232023.000,A,3950.5803,N,10502.2767,W,8.88,323.75,191217,,,A*78
$GYRO,171219,232023.000,+4.062,-1.812,-0.062
$EULER,171219,232023.000,+261.688,+4.250,-7.438
$GPRMC,232023.100,A,3950.5805,N,10502.2768,W,8.94,324.58,191217,,,A*75
$GYRO,171219,232023.100,+2.438,-1.562,-0.438
$EULER,171219,232023.100,+261.438,+4.125,-7.625
$GPRMC,232023.200,A,3950.5808,N,10502.2768,W,9.13,325.74,191217,,,A*7A
$GYRO,171219,232023.200,+0.500,-0.812,+0.188
$EULER,171219,232023.200,+261.375,+4.188,-7.562
$GPRMC,232023.300,A,3950.5811,N,10502.2769,W,9.16,326.80,191217,,,A*7F
$GYRO,171219,232023.300,-1.688,+1.062,-0.375
$EULER,171219,232023.300,+261.375,+4.062,-7.375
$GPRMC,232023.400,A,3950.5814,N,10502.2770,W,9.21,327.96,191217,,,A*77
$GYRO,171219,232023.400,-0.062,-0.688,-0.250
$EULER,171219,232023.400,+261.125,+3.938,-7.375
$GPRMC,232023.500,A,3950.5817,N,10502.2770,W,9.28,329.00,191217,,,A*7D
$GYRO,171219,232023.500,-0.750,+2.125,+0.000
$EULER,171219,232023.500,+261.000,+3.938,-7.250
$GPRMC,232023.600,A,3950.5819,N,10502.2771,W,9.48,330.30,191217,,,A*7C
$GYRO,171219,232023.600,-1.812,-0.250,-0.125
$EULER,171219,232023.600,+261.000,+3.812,-7.312
$GPRMC,232023.700,A,3950.5822,N,10502.2771,W,9.54,331.80,191217,,,A*72
$GYRO,171219,232023.700,+1.125,-5.000,-0.188
$EULER,171219,232023.700,+260.750,+3.875,-7.312
$GPRMC,232023.800,A,3950.5825,N,10502.2771,W,9.70,333.09,191217,,,A*7F
$GYRO,171219,232023.800,-2.188,-1.375,+0.062
$EULER,171219,232023.800,+260.750,+4.125,-7.188
$GPRMC,232023.900,A,3950.5829,N,10502.2771,W,9.76,334.43,191217,,,A*7D
$GYRO,171219,232023.900,-0.938,-1.000,+0.500
$EULER,171219,232023.900,+260.688,+4.312,-7.125
$GPRMC,232024.000,A,3950.5832,N,10502.2771,W,9.94,335.64,191217,,,A*71
$GYRO,171219,232024.000,+3.312,-1.562,+1.062
$EULER,171219,232024.000,+260.750,+4.500,-7.250
$GPRMC,232024.100,A,3950.5835,N,10502.2771,W,9.98,336.73,191217,,,A*7E
$GYRO,171219,232024.100,-2.688,-0.500,-0.062
$EULER,171219,232024.100,+260.750,+4.438,-6.875
$GPRMC,232024.200,A,3950.5838,N,10502.2772,W,10.02,337.30,191217,,,A*4E
$GYRO,171219,232024.200,+10.312,+0.312,-1.125
$EULER,171219,232024.200,+260.500,+4.625,-6.750
$GPRMC,232024.300,A,3950.5841,N,10502.2772,W,10.07,337.90,191217,,,A*4E
$GYRO,171219,232024.300,+0.750,+0.562,-1.125
$EULER,171219,232024.300,+260.375,+4.375,-6.625
$GPRMC,232024.400,A,3950.5844,N,10502.2772,W,10.14,338.65,191217,,,A*4B
$GYRO,171219,232024.400,-3.750,-0.875,-0.375
$EULER,171219,232024.400,+260.125,+4.250,-6.688
$GPRMC,232024.500,A,3950.5848,N,10502.2772,W,10.29,339.52,191217,,,A*4D
$GYRO,171219,232024.500,+4.562,-1.125,-1.000
$EULER,171219,232024.500,+260.125,+4.000,-6.812
$GPRMC,232024.600,A,3950.5850,N,10502.2768,W,10.31,340.35,191217,,,A*4A
$GYRO,171219,232024.600,-2.000,-0.875,+1.062
$EULER,171219,232024.600,+260.125,+4.188,-6.750
$GPRMC,232024.700,A,3950.5852,N,10502.2765,W,10.34,341.27,191217,,,A*43
$GYRO,171219,232024.700,-1.688,+0.438,+0.188
$EULER,171219,232024.700,+259.938,+4.250,-6.812
$GPRMC,232024.800,A,3950.5855,N,10502.2762,W,10.40,342.16,191217,,,A*4E
$GYRO,171219,232024.800,+1.250,+1.125,-1.250
$EULER,171219,232024.800,+260.000,+4.188,-6.875
$GPRMC,232024.900,A,3950.5859,N,10502.2759,W,10.47,343.03,191217,,,A*49
$GYRO,171219,232024.900,-2.125,-3.250,-1.750
$EULER,171219,232024.900,+260.062,+4.188,-6.750
$GPRMC,232025.000,A,3950.5863,N,10502.2756,W,10.65,343.87,191217,,,A*4B
$GYRO,171219,232025.000,+0.812,+2.250,-0.312
$EULER,171219,232025.000,+260.125,+4.188,-6.688
$GPRMC,232025.100,A,3950.5867,N,10502.2753,W,10.68,344.40,191217,,,A*4A
$GYRO,171219,232025.100,-0.938,+1.250,-1.812
$EULER,171219,232025.100,+260.188,+4.062,-6.688
$GPRMC,232025.200,A,3950.5871,N,10502.2751,W,10.72,345.00,191217,,,A*42
$GYRO,171219,232025.200,+1.312,-0.250,-1.938
$EULER,171219,232025.200,+260.062,+3.812,-6.500
$GPRMC,232025.300,A,3950.5874,N,10502.2749,W,10.78,345.46,191217,,,A*47
$GYRO,171219,232025.300,-0.875,-0.875,-1.375
$EULER,171219,232025.300,+260.188,+3.812,-6.375
$GPRMC,232025.400,A,3950.5877,N,10502.2747,W,10.95,345.97,191217,,,A*42
$GYRO,171219,232025.400,-1.000,-4.250,-1.562
$EULER,171219,232025.400,+260.375,+4.062,-6.312
$GPRMC,232025.500,A,3950.5881,N,10502.2745,W,11.00,346.54,191217,,,A*49
$GYRO,171219,232025.500,-3.625,-1.812,-1.812
$EULER,171219,232025.500,+260.500,+4.375,-6.125
$GPRMC,232025.600,A,3950.5885,N,10502.2744,W,11.07,347.09,191217,,,A*41
$GYRO,171219,232025.600,-4.375,+0.938,-1.062
$EULER,171219,232025.600,+260.562,+4.312,-6.062
$GPRMC,232025.700,A,3950.5889,N,10502.2743,W,11.13,347.75,191217,,,A*45
$GYRO,171219,232025.700,-2.062,+1.000,-1.062
$EULER,171219,232025.700,+260.688,+4.125,-5.938
$GPRMC,232025.800,A,3950.5893,N,10502.2742,W,11.30,348.31,191217,,,A*4E
$GYRO,171219,232025.800,-1.875,+1.688,+0.250
$EULER,171219,232025.800,+260.688,+3.938,-5.875
$GPRMC,232025.900,A,3950.5896,N,10502.2741,W,11.35,348.90,191217,,,A*47
$GYRO,171219,232025.900,+0.188,+5.000,+0.125
$EULER,171219,232025.900,+260.688,+3.688,-6.062
$GPRMC,232026.000,A,3950.5901,N,10502.2740,W,11.40,349.55,191217,,,A*49
$GYRO,171219,232026.000,-1.938,-3.312,+0.188
$EULER,171219,232026.000,+260.688,+3.812,-6.125
$GPRMC,232026.100,A,3950.5904,N,10502.2739,W,11.44,349.98,191217,,,A*46
$GYRO,171219,232026.100,-0.750,-3.312,-0.312
$EULER,171219,232026.100,+260.750,+4.000,-5.938
$GPRMC,232026.200,A,3950.5908,N,10502.2739,W,11.46,350.34,191217,,,A*45
$GYRO,171219,232026.200,+1.500,+0.375,+0.500
$EULER,171219,232026.200,+260.750,+4.000,-6.000
$GPRMC,232026.300,A,3950.5912,N,10502.2737,W,11.48,350.74,191217,,,A*4B
$GYRO,171219,232026.300,-1.875,+0.438,+0.188
$EULER,171219,232026.300,+260.688,+4.000,-6.125
$GPRMC,232026.400,A,3950.5916,N,10502.2736,W,11.51,351.19,191217,,,A*4B
$GYRO,171219,232026.400,-1.875,-0.125,+0.125
$EULER,171219,232026.400,+260.688,+3.875,-6.062
$GPRMC,232026.500,A,3950.5920,N,10502.2735,W,11.51,351.70,191217,,,A*43
$GYRO,171219,232026.500,+2.062,-0.562,-0.375
$EULER,171219,232026.500,+260.688,+3.875,-6.125
$GPRMC,232026.600,A,3950.5923,N,10502.2733,W,11.50,352.26,191217,,,A*44
$GYRO,171219,232026.600,+2.312,+0.875,-0.562
$EULER,171219,232026.600,+260.688,+3.750,-6.125
$GPRMC,232026.700,A,3950.5927,N,10502.2732,W,11.49,352.86,191217,,,A*42
$GYRO,171219,232026.700,-2.375,+0.125,-0.125
$EULER,171219,232026.700,+260.688,+3.750,-6.000
$GPRMC,232026.800,A,3950.5931,N,10502.2730,W,11.48,353.40,191217,,,A*42
$GYRO,171219,232026.800,-3.000,+0.375,-0.062
$EULER,171219,232026.800,+260.688,+3.562,-6.000
$GPRMC,232026.900,A,3950.5935,N,10502.2729,W,11.46,354.03,191217,,,A*41
$GYRO,171219,232026.900,+3.688,+0.375,+0.188
$EULER,171219,232026.900,+260.688,+3.438,-6.250
$GPRMC,232027.000,A,3950.5938,N,10502.2727,W,11.44,354.87,191217,,,A*44
$GYRO,171219,232027.000,-0.375,-2.250,+0.125
$EULER,171219,232027.000,+260.625,+3.625,-6.375
$GPRMC,232027.100,A,3950.5942,N,10502.2725,W,11.43,355.30,191217,,,A*40
$GYRO,171219,232027.100,+2.375,-0.812,-0.500
$EULER,171219,232027.100,+260.625,+3.688,-6.250
$GPRMC,232027.200,A,3950.5946,N,10502.2724,W,11.41,355.82,191217,,,A*4D
$GYRO,171219,232027.200,+2.625,+1.188,-0.312
$EULER,171219,232027.200,+260.688,+3.875,-6.062
$GPRMC,232027.300,A,3950.5950,N,10502.2723,W,11.41,356.17,191217,,,A*43
$GYRO,171219,232027.300,+3.000,-2.938,+0.812
$EULER,171219,232027.300,+260.625,+3.875,-6.375
$GPRMC,232027.400,A,3950.5954,N,10502.2721,W,11.41,356.75,191217,,,A*46
$GYRO,171219,232027.400,+1.625,-0.812,-0.625
$EULER,171219,232027.400,+260.625,+4.000,-6.500
$GPRMC,232027.500,A,3950.5957,N,10502.2720,W,11.39,357.37,191217,,,A*4D
$GYRO,171219,232027.500,+0.438,+0.000,-0.938
$EULER,171219,232027.500,+260.688,+3.688,-6.562
$GPRMC,232027.600,A,3950.5961,N,10502.2719,W,11.35,357.99,191217,,,A*49
$GYRO,171219,232027.600,-1.688,+0.750,-0.500
$EULER,171219,232027.600,+260.688,+3.625,-6.250
$GPRMC,232027.700,A,3950.5964,N,10502.2718,W,11.30,358.35,191217,,,A*40
$GYRO,171219,232027.700,+0.688,-2.125,+0.062
$EULER,171219,232027.700,+260.688,+3.625,-6.312
$GPRMC,232027.800,A,3950.5967,N,10502.2717,W,11.25,358.73,191217,,,A*45
$GYRO,171219,232027.800,-2.312,+2.875,-0.188
$EULER,171219,232027.800,+260.688,+3.562,-6.375
$GPRMC,232027.900,A,3950.5970,N,10502.2716,W,11.21,359.17,191217,,,A*44
$GYRO,171219,232027.900,-2.938,+1.312,+0.875
$EULER,171219,232027.900,+260.625,+3.438,-6.375
$GPRMC,232028.000,A,3950.5970,N,10502.2717,W,11.17,359.68,191217,,,A*4E
$GYRO,171219,232028.000,+0.062,+2.312,+0.188
$EULER,171219,232028.000,+260.625,+3.312,-6.438
$GPRMC,232028.100,A,3950.5971,N,10502.2718,W,11.13,359.80,191217,,,A*43
$GYRO,171219,232028.100,-0.688,+0.000,+0.000
$EULER,171219,232028.100,+260.625,+3.312,-6.500
$GPRMC,232028.200,A,3950.5973,N,10502.2719,W,11.08,0.10,191217,,,A*4F
$GYRO,171219,232028.200,-0.062,-0.500,+0.250
$EULER,171219,232028.200,+260.625,+3.312,-6.438
$GPRMC,232028.300,A,3950.5968,N,10502.2721,W,11.03,0.41,191217,,,A*40
$GYRO,171219,232028.300,-2.125,-2.500,-0.250
$EULER,171219,232028.300,+260.625,+3.438,-6.375
$GPRMC,232028.400,A,3950.5965,N,10502.2722,W,10.98,0.59,191217,,,A*43
$GYRO,171219,232028.400,-1.438,-0.688,+0.188
$EULER,171219,232028.400,+260.625,+3.500,-6.250
$GPRMC,232028.500,A,3950.5965,N,10502.2723,W,10.92,0.91,191217,,,A*4D
$GYRO,171219,232028.500,-1.375,+0.312,+0.125
$EULER,171219,232028.500,+260.625,+3.562,-6.188
$GPRMC,232028.600,A,3950.5965,N,10502.2724,W,10.86,1.17,191217,,,A*43
$GYRO,171219,232028.600,+0.312,+0.125,-0.312
$EULER,171219,232028.600,+260.625,+3.500,-6.250
$GPRMC,232028.700,A,3950.5965,N,10502.2724,W,10.67,1.37,191217,,,A*4F
$GYRO,171219,232028.700,+0.438,-0.812,+0.250
$EULER,171219,232028.700,+260.625,+3.500,-6.125
$GPRMC,232028.800,A,3950.5968,N,10502.2727,W,10.65,1.30,191217,,,A*4B
$GYRO,171219,232028.800,-2.625,+0.312,+0.250
$EULER,171219,232028.800,+260.625,+3.562,-6.000
$GPRMC,232028.900,A,3950.5971,N,10502.2728,W,10.61,1.29,191217,,,A*41
$GYRO,171219,232028.900,-3.438,+0.938,-0.188
$EULER,171219,232028.900,+260.688,+3.625,-5.812
$GPRMC,232029.000,A,3950.5974,N,10502.2728,W,10.54,1.39,191217,,,A*4B
$GYRO,171219,232029.000,+0.250,-0.625,-0.062
$EULER,171219,232029.000,+260.688,+3.562,-5.562
$GPRMC,232029.100,A,3950.5976,N,10502.2729,W,10.49,1.37,191217,,,A*4B
$GYRO,171219,232029.100,-2.125,-2.188,+0.438
$EULER,171219,232029.100,+260.625,+3.688,-5.562
$GPRMC,232029.200,A,3950.5978,N,10502.2729,W,10.44,1.45,191217,,,A*4E
$GYRO,171219,232029.200,+0.875,+0.125,-0.438
$EULER,171219,232029.200,+259.812,+3.625,-5.625
$GPRMC,232029.300,A,3950.5982,N,10502.2729,W,10.39,1.46,191217,,,A*43
$GYRO,171219,232029.300,-1.688,+0.062,+0.312
$EULER,171219,232029.300,+259.438,+3.625,-5.500
$GPRMC,232029.400,A,3950.5987,N,10502.2727,W,10.33,1.57,191217,,,A*45
$GYRO,171219,232029.400,+0.375,+1.188,+0.125
$EULER,171219,232029.400,+259.000,+3.562,-5.375
$GPRMC,232029.500,A,3950.5991,N,10502.2726,W,10.13,1.88,191217,,,A*42
$GYRO,171219,232029.500,+0.062,+0.062,-0.062
$EULER,171219,232029.500,+258.812,+3.625,-5.312
$GPRMC,232029.600,A,3950.5996,N,10502.2724,W,10.08,2.09,191217,,,A*44
$GYRO,171219,232029.600,+0.188,+0.250,+0.125
$EULER,171219,232029.600,+258.812,+3.625,-5.312
$GPRMC,232029.700,A,3950.6000,N,10502.2722,W,10.01,2.13,191217,,,A*44
